[{
  "_id": {
    "$oid": "670bd14d4c81abc99fd59022"
  },
  "city": "Wellawatte",
  "name": "NK Tyre House & Service",
  "type1": "tyre",
  "whatsapp": " https://wa.me/+94756814599",
  "local": 756814599,
  "latitude": 6.8831,
  "longitude": 79.9742
},
{
  "_id": {
    "$oid": "670bd14d4c81abc99fd59023"
  },
  "city": "Kollupitiya",
  "name": "NK Tyre House & Service",
  "type1": "tyre",
  "whatsapp": " https://wa.me/+94756814599",
  "local": 756814599,
  "latitude": 6.9271,
  "longitude": 79.9582
},
{
  "_id": {
    "$oid": "670bd14d4c81abc99fd59024"
  },
  "city": "Fort",
  "name": "NK Tyre House & Service",
  "type1": "tyre",
  "whatsapp": " https://wa.me/+94756814599",
  "local": 756814599,
  "latitude": 6.9271,
  "longitude": 79.9552
},
{
  "_id": {
    "$oid": "670bd14d4c81abc99fd59025"
  },
  "city": "Pettah",
  "name": "NK Tyre House & Service",
  "type1": "tyre",
  "whatsapp": " https://wa.me/+94756814599",
  "local": 756814599,
  "latitude": 6.9721,
  "longitude": 79.9582
},
{
  "_id": {
    "$oid": "670bd14d4c81abc99fd59026"
  },
  "city": "Dehiwala",
  "name": "NK Tyre House & Service",
  "type1": "tyre",
  "whatsapp": " https://wa.me/+94756814599",
  "local": 756814599,
  "latitude": 6.8511,
  "longitude": 79.9772
},
{
  "_id": {
    "$oid": "670bd14d4c81abc99fd59027"
  },
  "city": "Mount Lavinia",
  "name": "NK Tyre House & Service",
  "type1": "tyre",
  "whatsapp": " https://wa.me/+94756814599",
  "local": 756814599,
  "latitude": 6.8221,
  "longitude": 79.9732
},
{
  "_id": {
    "$oid": "670bd14d4c81abc99fd59028"
  },
  "city": "Kalubowila",
  "name": "NK Tyre House & Service",
  "type1": "tyre",
  "whatsapp": " https://wa.me/+94756814599",
  "local": 756814599,
  "latitude": 6.8551,
  "longitude": 79.9722
},
{
  "_id": {
    "$oid": "670bd14d4c81abc99fd59029"
  },
  "city": "Kochchikade",
  "name": "NK Tyre House & Service",
  "type1": "tyre",
  "whatsapp": " https://wa.me/+94756814599",
  "local": 756814599,
  "latitude": 7.0751,
  "longitude": 79.9632
},
{
  "_id": {
    "$oid": "670bd14d4c81abc99fd5902a"
  },
  "city": "Katunayake",
  "name": "NK Tyre House & Service",
  "type1": "tyre",
  "whatsapp": " https://wa.me/+94756814599",
  "local": 756814599,
  "latitude": 7.1801,
  "longitude": 79.9672
},
{
  "_id": {
    "$oid": "670bd14d4c81abc99fd5902b"
  },
  "city": "Udugampola",
  "name": "NK Tyre House & Service",
  "type1": "tyre",
  "whatsapp": " https://wa.me/+94756814599",
  "local": 756814599,
  "latitude": 7.1871,
  "longitude": 80.0022
},
{
  "_id": {
    "$oid": "670bd14d4c81abc99fd5902c"
  },
  "city": "Peliyagoda",
  "name": "NK Tyre House & Service",
  "type1": "tyre",
  "whatsapp": " https://wa.me/+94756814599",
  "local": 756814599,
  "latitude": 6.9731,
  "longitude": 79.9572
},
{
  "_id": {
    "$oid": "670bd14d4c81abc99fd5902d"
  },
  "city": "Kiribathgoda",
  "name": "NK Tyre House & Service",
  "type1": "tyre",
  "whatsapp": " https://wa.me/+94756814599",
  "local": 756814599,
  "latitude": 6.9731,
  "longitude": 79.9772
},
{
  "_id": {
    "$oid": "670bd14d4c81abc99fd5902e"
  },
  "city": "Kadawatha",
  "name": "NK Tyre House & Service",
  "type1": "tyre",
  "whatsapp": " https://wa.me/+94756814599",
  "local": 756814599,
  "latitude": 6.9521,
  "longitude": 80.0602
},
{
  "_id": {
    "$oid": "670bd14d4c81abc99fd5902f"
  },
  "city": "Panadura",
  "name": "NK Tyre House & Service",
  "type1": "tyre",
  "whatsapp": " https://wa.me/+94756814599",
  "local": 756814599,
  "latitude": 6.7421,
  "longitude": 79.9872
},
{
  "_id": {
    "$oid": "670bd14d4c81abc99fd59030"
  },
  "city": "Katubedda",
  "name": "NK Tyre House & Service",
  "type1": "tyre",
  "whatsapp": " https://wa.me/+94756814599",
  "local": 756814599,
  "latitude": 6.7771,
  "longitude": 79.9932
},
{
  "_id": {
    "$oid": "670bd14d4c81abc99fd59031"
  },
  "city": "Rawatawatta",
  "name": "NK Tyre House & Service",
  "type1": "tyre",
  "whatsapp": " https://wa.me/+94756814599",
  "local": 756814599,
  "latitude": 6.7741,
  "longitude": 79.9952
},
{
  "_id": {
    "$oid": "670bd14d4c81abc99fd59032"
  },
  "city": "Talawathugoda",
  "name": "NK Tyre House & Service",
  "type1": "tyre",
  "whatsapp": " https://wa.me/+94756814599",
  "local": 756814599,
  "latitude": 6.9281,
  "longitude": 80.0862
},
{
  "_id": {
    "$oid": "670bd14d4c81abc99fd59033"
  },
  "city": "Malabe",
  "name": "NK Tyre House & Service",
  "type1": "tyre",
  "whatsapp": " https://wa.me/+94756814599",
  "local": 756814599,
  "latitude": 6.9321,
  "longitude": 80.0542
},
{
  "_id": {
    "$oid": "670bd14d4c81abc99fd59034"
  },
  "city": "Pannipitiya",
  "name": "NK Tyre House & Service",
  "type1": "tyre",
  "whatsapp": " https://wa.me/+94756814599",
  "local": 756814599,
  "latitude": 6.9351,
  "longitude": 80.0962
},
{
  "_id": {
    "$oid": "670bd14d4c81abc99fd59035"
  },
  "city": "Hendala",
  "name": "NK Tyre House & Service",
  "type1": "tyre",
  "whatsapp": " https://wa.me/+94756814599",
  "local": 756814599,
  "latitude": 6.9801,
  "longitude": 79.9632
},
{
  "_id": {
    "$oid": "670bd14d4c81abc99fd59036"
  },
  "city": "Rajagiriya",
  "name": "NK Tyre House & Service",
  "type1": "tyre",
  "whatsapp": " https://wa.me/+94756814599",
  "local": 756814599,
  "latitude": 6.9291,
  "longitude": 79.9722
},
{
  "_id": {
    "$oid": "670bd14d4c81abc99fd59037"
  },
  "city": "Wijerama",
  "name": "NK Tyre House & Service",
  "type1": "tyre",
  "whatsapp": " https://wa.me/+94756814599",
  "local": 756814599,
  "latitude": 6.9241,
  "longitude": 79.9782
},
{
  "_id": {
    "$oid": "670bd14d4c81abc99fd59038"
  },
  "city": "Battaramulla",
  "name": "NK Tyre House & Service",
  "type1": "tyre",
  "whatsapp": " https://wa.me/+94756814599",
  "local": 756814599,
  "latitude": 6.9261,
  "longitude": 80.0452
},
{
  "_id": {
    "$oid": "670bd14d4c81abc99fd59039"
  },
  "city": "Kaluwella",
  "name": "NK Tyre House & Service",
  "type1": "tyre",
  "whatsapp": " https://wa.me/+94756814599",
  "local": 756814599,
  "latitude": 6.0141,
  "longitude": 80.2202
},
{
  "_id": {
    "$oid": "670bd14d4c81abc99fd5903a"
  },
  "city": "Boossa",
  "name": "NK Tyre House & Service",
  "type1": "tyre",
  "whatsapp": " https://wa.me/+94756814599",
  "local": 756814599,
  "latitude": 6.0121,
  "longitude": 80.2152
},
{
  "_id": {
    "$oid": "670bd14d4c81abc99fd5903b"
  },
  "city": "Udugama",
  "name": "NK Tyre House & Service",
  "type1": "tyre",
  "whatsapp": " https://wa.me/+94756814599",
  "local": 756814599,
  "latitude": 6.0511,
  "longitude": 80.2742
},
{
  "_id": {
    "$oid": "670bd14d4c81abc99fd5903c"
  },
  "city": "Ariyapala",
  "name": "NK Tyre House & Service",
  "type1": "tyre",
  "whatsapp": " https://wa.me/+94756814599",
  "local": 756814599,
  "latitude": 6.1261,
  "longitude": 80.3812
},
{
  "_id": {
    "$oid": "670bd14d4c81abc99fd5903d"
  },
  "city": "Thudella",
  "name": "NK Tyre House & Service",
  "type1": "tyre",
  "whatsapp": " https://wa.me/+94756814599",
  "local": 756814599,
  "latitude": 6.0651,
  "longitude": 80.2112
},
{
  "_id": {
    "$oid": "670bd14d4c81abc99fd5903e"
  },
  "city": "Galle Road",
  "name": "NK Tyre House & Service",
  "type1": "tyre",
  "whatsapp": " https://wa.me/+94756814599",
  "local": 756814599,
  "latitude": 6.9281,
  "longitude": 79.9572
},
{
  "_id": {
    "$oid": "670bd14d4c81abc99fd5903f"
  },
  "city": "Narigama",
  "name": "NK Tyre House & Service",
  "type1": "tyre",
  "whatsapp": " https://wa.me/+94756814599",
  "local": 756814599,
  "latitude": 6.1291,
  "longitude": 80.2182
},
{
  "_id": {
    "$oid": "670bd14d4c81abc99fd59040"
  },
  "city": "Telwatta",
  "name": "NK Tyre House & Service",
  "type1": "tyre",
  "whatsapp": " https://wa.me/+94756814599",
  "local": 756814599,
  "latitude": 6.1301,
  "longitude": 80.2202
},
{
  "_id": {
    "$oid": "670bd14d4c81abc99fd59041"
  },
  "city": "Dodanduwa",
  "name": "NK Tyre House & Service",
  "type1": "tyre",
  "whatsapp": " https://wa.me/+94756814599",
  "local": 756814599,
  "latitude": 6.1181,
  "longitude": 80.2292
},
{
  "_id": {
    "$oid": "670bd14d4c81abc99fd59042"
  },
  "city": "Talpe",
  "name": "NK Tyre House & Service",
  "type1": "tyre",
  "whatsapp": "https://wa.me/+94756814599",
  "local": 756814599,
  "latitude": 6.0511,
  "longitude": 80.2302
},
{
  "_id": {
    "$oid": "670bd14d4c81abc99fd59043"
  },
  "city": "Yaddehimulla",
  "name": "NK Tyre House & Service",
  "type1": "tyre",
  "whatsapp": " https://wa.me/+94756814599",
  "local": 756814599,
  "latitude": 6.1331,
  "longitude": 80.2192
},
{
  "_id": {
    "$oid": "670bd14d4c81abc99fd59044"
  },
  "city": "Pitiwella",
  "name": "NK Tyre House & Service",
  "type1": "tyre",
  "whatsapp": " https://wa.me/+94756814599",
  "local": 756814599,
  "latitude": 6.0481,
  "longitude": 80.2322
},
{
  "_id": {
    "$oid": "670bd14d4c81abc99fd59045"
  },
  "city": "Katudampala",
  "name": "NK Tyre House & Service",
  "type1": "tyre",
  "whatsapp": " https://wa.me/+94756814599",
  "local": 756814599,
  "latitude": 6.0771,
  "longitude": 80.3322
},
{
  "_id": {
    "$oid": "670bd14d4c81abc99fd59046"
  },
  "city": "Moragalla",
  "name": "NK Tyre House & Service",
  "type1": "tyre",
  "whatsapp": " https://wa.me/+94756814599",
  "local": 756814599,
  "latitude": 6.1241,
  "longitude": 80.2202
},
{
  "_id": {
    "$oid": "670bd14d4c81abc99fd59047"
  },
  "city": "Biyagama",
  "name": "NK Tyre House & Service",
  "type1": "tyre",
  "whatsapp": " https://wa.me/+94756814599",
  "local": 756814599,
  "latitude": 6.9861,
  "longitude": 80.0652
},
{
  "_id": {
    "$oid": "670bd14d4c81abc99fd59048"
  },
  "city": "Ginthota",
  "name": "NK Tyre House & Service",
  "type1": "tyre",
  "whatsapp": " https://wa.me/+94756814599",
  "local": 756814599,
  "latitude": 6.0281,
  "longitude": 80.2162
},
{
  "_id": {
    "$oid": "670bd14d4c81abc99fd59049"
  },
  "city": "Kumburugamuwa",
  "name": "NK Tyre House & Service",
  "type1": "tyre",
  "whatsapp": " https://wa.me/+94756814599",
  "local": 756814599,
  "latitude": 6.0321,
  "longitude": 80.2292
},
{
  "_id": {
    "$oid": "670bd14d4c81abc99fd5904a"
  },
  "city": "Habarakada",
  "name": "NK Tyre House & Service",
  "type1": "tyre",
  "whatsapp": " https://wa.me/+94756814599",
  "local": 756814599,
  "latitude": 6.8961,
  "longitude": 80.0122
},
{
  "_id": {
    "$oid": "670bd14d4c81abc99fd5904b"
  },
  "city": "Kamburugamuwa",
  "name": "NK Tyre House & Service",
  "type1": "tyre",
  "whatsapp": " https://wa.me/+94756814599",
  "local": 756814599,
  "latitude": 6.0211,
  "longitude": 80.2292
},
{
  "_id": {
    "$oid": "670bd14d4c81abc99fd5904c"
  },
  "city": "Karandeniya",
  "name": "NK Tyre House & Service",
  "type1": "tyre",
  "whatsapp": " https://wa.me/+94756814599",
  "local": 756814599,
  "latitude": 6.1861,
  "longitude": 80.2232
},
{
  "_id": {
    "$oid": "670bd14d4c81abc99fd5904d"
  },
  "city": "Wewala",
  "name": "NK Tyre House & Service",
  "type1": "tyre",
  "whatsapp": " https://wa.me/+94756814599",
  "local": 756814599,
  "latitude": 6.1331,
  "longitude": 80.2062
},
{
  "_id": {
    "$oid": "670bd14d4c81abc99fd5904e"
  },
  "city": "Kammala",
  "name": "NK Tyre House & Service",
  "type1": "tyre",
  "whatsapp": " https://wa.me/+94756814599",
  "local": 756814599,
  "latitude": 6.0161,
  "longitude": 80.3832
},
{
  "_id": {
    "$oid": "670bd14d4c81abc99fd5904f"
  },
  "city": "Yakkala",
  "name": "NK Tyre House & Service",
  "type1": "tyre",
  "whatsapp": " https://wa.me/+94756814599",
  "local": 756814599,
  "latitude": 6.9411,
  "longitude": 80.0542
},
{
  "_id": {
    "$oid": "670bd14d4c81abc99fd59050"
  },
  "city": "Ekala",
  "name": "NK Tyre House & Service",
  "type1": "tyre",
  "whatsapp": " https://wa.me/+94756814599",
  "local": 756814599,
  "latitude": 6.9831,
  "longitude": 80.1332
},
{
  "_id": {
    "$oid": "670bd14d4c81abc99fd59051"
  },
  "city": "Miriswatta",
  "name": "NK Tyre House & Service",
  "type1": "tyre",
  "whatsapp": " https://wa.me/+94756814599",
  "local": 756814599,
  "latitude": 6.9331,
  "longitude": 80.0662
},
{
  "_id": {
    "$oid": "670bd14d4c81abc99fd59052"
  },
  "city": "Ja-Ela",
  "name": "NK Tyre House & Service",
  "type1": "tyre",
  "whatsapp": " https://wa.me/+94756814599",
  "local": 756814599,
  "latitude": 6.9741,
  "longitude": 80.1552
},
{
  "_id": {
    "$oid": "670bd14d4c81abc99fd59053"
  },
  "city": "Mahara",
  "name": "NK Tyre House & Service",
  "type1": "tyre",
  "whatsapp": " https://wa.me/+94756814599",
  "local": 756814599,
  "latitude": 6.9741,
  "longitude": 80.1272
},
{
  "_id": {
    "$oid": "670bd14d4c81abc99fd59054"
  },
  "city": "Divulapitiya",
  "name": "NK Tyre House & Service",
  "type1": "tyre",
  "whatsapp": " https://wa.me/+94756814599",
  "local": 756814599,
  "latitude": 7.0141,
  "longitude": 80.0572
},
{
  "_id": {
    "$oid": "670bd14d4c81abc99fd59055"
  },
  "city": "Peradeniya",
  "name": "NK Tyre House & Service",
  "type1": "tyre",
  "whatsapp": " https://wa.me/+94756814599",
  "local": 756814599,
  "latitude": 7.2751,
  "longitude": 80.5982
},
{
  "_id": {
    "$oid": "670bd14d4c81abc99fd59056"
  },
  "city": "Kandy University",
  "name": "NK Tyre House & Service",
  "type1": "tyre",
  "whatsapp": " https://wa.me/+94756814599",
  "local": 756814599,
  "latitude": 7.2781,
  "longitude": 80.5972
},
{
  "_id": {
    "$oid": "670bd14d4c81abc99fd59057"
  },
  "city": "Hantane",
  "name": "NK Tyre House & Service",
  "type1": "tyre",
  "whatsapp": " https://wa.me/+94756814599",
  "local": 756814599,
  "latitude": 7.2901,
  "longitude": 80.5942
},
{
  "_id": {
    "$oid": "670bd14d4c81abc99fd59058"
  },
  "city": "Kandy Road",
  "name": "NK Tyre House & Service",
  "type1": "tyre",
  "whatsapp": " https://wa.me/+94756814599",
  "local": 756814599,
  "latitude": 7.2831,
  "longitude": 80.5832
},
{
  "_id": {
    "$oid": "670bd14d4c81abc99fd59059"
  },
  "city": "Kothmale",
  "name": "NK Tyre House & Service",
  "type1": "tyre",
  "whatsapp": " https://wa.me/+94756814599",
  "local": 756814599,
  "latitude": 7.1821,
  "longitude": 80.5052
},
{
  "_id": {
    "$oid": "670bd14d4c81abc99fd5905a"
  },
  "city": "Hatton",
  "name": "NK Tyre House & Service",
  "type1": "tyre",
  "whatsapp": " https://wa.me/+94756814599",
  "local": 756814599,
  "latitude": 6.9671,
  "longitude": 80.6162
},
{
  "_id": {
    "$oid": "670bd14d4c81abc99fd5905b"
  },
  "city": "Galigamuwa",
  "name": "NK Tyre House & Service",
  "type1": "tyre",
  "whatsapp": " https://wa.me/+94756814599",
  "local": 756814599,
  "latitude": 7.0461,
  "longitude": 80.4572
},
{
  "_id": {
    "$oid": "670bd14d4c81abc99fd5905c"
  },
  "city": "Rambukkana",
  "name": "NK Tyre House & Service",
  "type1": "tyre",
  "whatsapp": " https://wa.me/+94756814599",
  "local": 756814599,
  "latitude": 7.0511,
  "longitude": 80.4062
},
{
  "_id": {
    "$oid": "670bd14d4c81abc99fd5905d"
  },
  "city": "Warakapola",
  "name": "NK Tyre House & Service",
  "type1": "tyre",
  "whatsapp": " https://wa.me/+94756814599",
  "local": 756814599,
  "latitude": 7.0511,
  "longitude": 80.4072
},
{
  "_id": {
    "$oid": "670bd14d4c81abc99fd5905e"
  },
  "city": "Galewela",
  "name": "NK Tyre House & Service",
  "type1": "tyre",
  "whatsapp": " https://wa.me/+94756814599",
  "local": 756814599,
  "latitude": 7.1771,
  "longitude": 80.5022
},
{
  "_id": {
    "$oid": "670bd14d4c81abc99fd5905f"
  },
  "city": "Matale",
  "name": "NK Tyre House & Service",
  "type1": "tyre",
  "whatsapp": " https://wa.me/+94756814599",
  "local": 756814599,
  "latitude": 7.4891,
  "longitude": 80.6062
},
{
  "_id": {
    "$oid": "670bd14d4c81abc99fd59060"
  },
  "city": "Nalanda",
  "name": "NK Tyre House & Service",
  "type1": "tyre",
  "whatsapp": " https://wa.me/+94756814599",
  "local": 756814599,
  "latitude": 7.5081,
  "longitude": 80.6172
},
{
  "_id": {
    "$oid": "670bd14d4c81abc99fd59061"
  },
  "city": "Sigiriya",
  "name": "NK Tyre House & Service",
  "type1": "tyre",
  "whatsapp": " https://wa.me/+94756814599",
  "local": 756814599,
  "latitude": 7.9551,
  "longitude": 80.7662
},
{
  "_id": {
    "$oid": "670bd14d4c81abc99fd59062"
  },
  "city": "Naula",
  "name": "NK Tyre House & Service",
  "type1": "tyre",
  "whatsapp": " https://wa.me/+94756814599",
  "local": 756814599,
  "latitude": 7.4681,
  "longitude": 80.5432
},
{
  "_id": {
    "$oid": "670bd14d4c81abc99fd59063"
  },
  "city": "Hettipola",
  "name": "NK Tyre House & Service",
  "type1": "tyre",
  "whatsapp": " https://wa.me/+94756814599",
  "local": 756814599,
  "latitude": 7.4371,
  "longitude": 80.3812
},
{
  "_id": {
    "$oid": "670bd14d4c81abc99fd59064"
  },
  "city": "Ukuwela",
  "name": "NK Tyre House & Service",
  "type1": "tyre",
  "whatsapp": " https://wa.me/+94756814599",
  "local": 756814599,
  "latitude": 7.3901,
  "longitude": 80.3742
},
{
  "_id": {
    "$oid": "670bd14d4c81abc99fd59065"
  },
  "city": "Laggala",
  "name": "NK Tyre House & Service",
  "type1": "tyre",
  "whatsapp": " https://wa.me/+94756814599",
  "local": 756814599,
  "latitude": 7.4051,
  "longitude": 80.6042
},
{
  "_id": {
    "$oid": "670bd14d4c81abc99fd59066"
  },
  "city": "Grand Hotel",
  "name": "NK Tyre House & Service",
  "type1": "tyre",
  "whatsapp": " https://wa.me/+94756814599",
  "local": 756814599,
  "latitude": 6.9641,
  "longitude": 80.2322
},
{
  "_id": {
    "$oid": "670bd14d4c81abc99fd59067"
  },
  "city": "Lake Gregory",
  "name": "NK Tyre House & Service",
  "type1": "tyre",
  "whatsapp": " https://wa.me/+94756814599",
  "local": 756814599,
  "latitude": 6.9631,
  "longitude": 80.2312
},
{
  "_id": {
    "$oid": "670bd14d4c81abc99fd59068"
  },
  "city": "Nuwara Eliya Town",
  "name": "NK Tyre House & Service",
  "type1": "tyre",
  "whatsapp": " https://wa.me/+94756814599",
  "local": 756814599,
  "latitude": 6.9681,
  "longitude": 80.2232
},
{
  "_id": {
    "$oid": "670bd14d4c81abc99fd59069"
  },
  "city": "Halpe",
  "name": "NK Tyre House & Service",
  "type1": "tyre",
  "whatsapp": " https://wa.me/+94756814599",
  "local": 756814599,
  "latitude": 6.9101,
  "longitude": 81.0842
},
{
  "_id": {
    "$oid": "670bd14d4c81abc99fd5906a"
  },
  "city": "Passara",
  "name": "NK Tyre House & Service",
  "type1": "tyre",
  "whatsapp": " https://wa.me/+94756814599",
  "local": 756814599,
  "latitude": 6.8421,
  "longitude": 81.1522
},
{
  "_id": {
    "$oid": "670bd14d4c81abc99fd5906b"
  },
  "city": "Welimada",
  "name": "NK Tyre House & Service",
  "type1": "tyre",
  "whatsapp": " https://wa.me/+94756814599",
  "local": 756814599,
  "latitude": 6.8881,
  "longitude": 81.1062
},
{
  "_id": {
    "$oid": "670bd14d4c81abc99fd5906c"
  },
  "city": "Badulla",
  "name": "NK Tyre House & Service",
  "type1": "tyre",
  "whatsapp": " https://wa.me/+94756814599",
  "local": 756814599,
  "latitude": 6.9781,
  "longitude": 81.0532
},
{
  "_id": {
    "$oid": "670bd14d4c81abc99fd5906d"
  },
  "city": "Ohiya",
  "name": "NK Tyre House & Service",
  "type1": "tyre",
  "whatsapp": " https://wa.me/+94756814599",
  "local": 756814599,
  "latitude": 6.9111,
  "longitude": 81.1512
},
{
  "_id": {
    "$oid": "670bd14d4c81abc99fd5906e"
  },
  "city": "Diyatalawa",
  "name": "NK Tyre House & Service",
  "type1": "tyre",
  "whatsapp": " https://wa.me/+94756814599",
  "local": 756814599,
  "latitude": 6.9141,
  "longitude": 81.1452
},
{
  "_id": {
    "$oid": "670bd14d4c81abc99fd5906f"
  },
  "city": "Horton Plains",
  "name": "NK Tyre House & Service",
  "type1": "tyre",
  "whatsapp": " https://wa.me/+94756814599",
  "local": 756814599,
  "latitude": 6.8441,
  "longitude": 80.8412
},
{
  "_id": {
    "$oid": "670bd14d4c81abc99fd59070"
  },
  "city": "Nanu Oya",
  "name": "NK Tyre House & Service",
  "type1": "tyre",
  "whatsapp": " https://wa.me/+94756814599",
  "local": 756814599,
  "latitude": 6.9891,
  "longitude": 80.7812
},
{
  "_id": {
    "$oid": "670bd14d4c81abc99fd59071"
  },
  "city": "Bandarawela",
  "name": "NK Tyre House & Service",
  "type1": "tyre",
  "whatsapp": " https://wa.me/+94756814599",
  "local": 756814599,
  "latitude": 6.8251,
  "longitude": 81.0682
},
{
  "_id": {
    "$oid": "670bd14d4c81abc99fd59072"
  },
  "city": "Haldummulla",
  "name": "NK Tyre House & Service",
  "type1": "tyre",
  "whatsapp": " https://wa.me/+94756814599",
  "local": 756814599,
  "latitude": 6.8331,
  "longitude": 81.0502
},
{
  "_id": {
    "$oid": "670bd14d4c81abc99fd59073"
  },
  "city": "Mahiyanganaya",
  "name": "NK Tyre House & Service",
  "type1": "tyre",
  "whatsapp": " https://wa.me/+94756814599",
  "local": 756814599,
  "latitude": 7.3271,
  "longitude": 81.0152
},
{
  "_id": {
    "$oid": "670bd14d4c81abc99fd59074"
  },
  "city": "Monaragala",
  "name": "NK Tyre House & Service",
  "type1": "tyre",
  "whatsapp": " https://wa.me/+94756814599",
  "local": 756814599,
  "latitude": 6.8711,
  "longitude": 81.3302
},
{
  "_id": {
    "$oid": "670bd14d4c81abc99fd59075"
  },
  "city": "Bibile",
  "name": "NK Tyre House & Service",
  "type1": "tyre",
  "whatsapp": " https://wa.me/+94756814599",
  "local": 756814599,
  "latitude": 7.2061,
  "longitude": 81.3222
},
{
  "_id": {
    "$oid": "670bd14d4c81abc99fd59076"
  },
  "city": "Medagama",
  "name": "NK Tyre House & Service",
  "type1": "tyre",
  "whatsapp": " https://wa.me/+94756814599",
  "local": 756814599,
  "latitude": 7.0871,
  "longitude": 81.2562
},
{
  "_id": {
    "$oid": "670bd14d4c81abc99fd59077"
  },
  "city": "Thanamalwila",
  "name": "NK Tyre House & Service",
  "type1": "tyre",
  "whatsapp": " https://wa.me/+94756814599",
  "local": 756814599,
  "latitude": 6.9331,
  "longitude": 81.4332
},
{
  "_id": {
    "$oid": "670bd14d4c81abc99fd59078"
  },
  "city": "Siyambalanduwa",
  "name": "NK Tyre House & Service",
  "type1": "tyre",
  "whatsapp": " https://wa.me/+94756814599",
  "local": 756814599,
  "latitude": 7.2711,
  "longitude": 81.5622
},
{
  "_id": {
    "$oid": "670bd14d4c81abc99fd59079"
  },
  "city": "Kinniya",
  "name": "NK Tyre House & Service",
  "type1": "tyre",
  "whatsapp": " https://wa.me/+94756814599",
  "local": 756814599,
  "latitude": 8.0201,
  "longitude": 81.5902
},
{
  "_id": {
    "$oid": "670bd14d4c81abc99fd5907a"
  },
  "city": "Kuchchaveli",
  "name": "NK Tyre House & Service",
  "type1": "tyre",
  "whatsapp": " https://wa.me/+94756814599",
  "local": 756814599,
  "latitude": 8.1441,
  "longitude": 81.5592
},
{
  "_id": {
    "$oid": "670bd14d4c81abc99fd5907b"
  },
  "city": "Seruwila",
  "name": "NK Tyre House & Service",
  "type1": "tyre",
  "whatsapp": " https://wa.me/+94756814599",
  "local": 756814599,
  "latitude": 8.0151,
  "longitude": 81.6452
},
{
  "_id": {
    "$oid": "670bd14d4c81abc99fd5907c"
  },
  "city": "Nilaveli",
  "name": "NK Tyre House & Service",
  "type1": "tyre",
  "whatsapp": " https://wa.me/+94756814599",
  "local": 756814599,
  "latitude": 8.2771,
  "longitude": 81.2602
},
{
  "_id": {
    "$oid": "670bd14d4c81abc99fd5907d"
  },
  "city": "Muttur",
  "name": "NK Tyre House & Service",
  "type1": "tyre",
  "whatsapp": " https://wa.me/+94756814599",
  "local": 756814599,
  "latitude": 8.0661,
  "longitude": 81.6332
},
{
  "_id": {
    "$oid": "670bd14d4c81abc99fd5907e"
  },
  "city": "Verugal",
  "name": "NK Tyre House & Service",
  "type1": "tyre",
  "whatsapp": " https://wa.me/+94756814599",
  "local": 756814599,
  "latitude": 8.0831,
  "longitude": 81.9002
},
{
  "_id": {
    "$oid": "670bd14d4c81abc99fd5907f"
  },
  "city": "Kantalai",
  "name": "NK Tyre House & Service",
  "type1": "tyre",
  "whatsapp": " https://wa.me/+94756814599",
  "local": 756814599,
  "latitude": 8.1161,
  "longitude": 81.6662
},
{
  "_id": {
    "$oid": "670bd14d4c81abc99fd59080"
  },
  "city": "Oddusuddan",
  "name": "NK Tyre House & Service",
  "type1": "tyre",
  "whatsapp": " https://wa.me/+94756814599",
  "local": 756814599,
  "latitude": 8.0241,
  "longitude": 81.6802
},
{
  "_id": {
    "$oid": "670bd14d4c81abc99fd59081"
  },
  "city": "Pudukuduirippu",
  "name": "NK Tyre House & Service",
  "type1": "tyre",
  "whatsapp": " https://wa.me/+94756814599",
  "local": 756814599,
  "latitude": 8.0461,
  "longitude": 81.6802
},
{
  "_id": {
    "$oid": "670bd14d4c81abc99fd59082"
  },
  "city": "Maritimepattu",
  "name": "NK Tyre House & Service",
  "type1": "tyre",
  "whatsapp": " https://wa.me/+94756814599",
  "local": 756814599,
  "latitude": 8.0831,
  "longitude": 81.6332
},
{
  "_id": {
    "$oid": "670bd14d4c81abc99fd59083"
  },
  "city": "Welioya",
  "name": "NK Tyre House & Service",
  "type1": "tyre",
  "whatsapp": " https://wa.me/+94756814599",
  "local": 756814599,
  "latitude": 8.0611,
  "longitude": 81.7412
},
{
  "_id": {
    "$oid": "670bd14d4c81abc99fd59084"
  },
  "city": "Malavi",
  "name": "NK Tyre House & Service",
  "type1": "tyre",
  "whatsapp": " https://wa.me/+94756814599",
  "local": 756814599,
  "latitude": 8.0691,
  "longitude": 81.6812
},
{
  "_id": {
    "$oid": "670bd14d4c81abc99fd59085"
  },
  "city": "Vavuniya North",
  "name": "NK Tyre House & Service",
  "type1": "tyre",
  "whatsapp": " https://wa.me/+94756814599",
  "local": 756814599,
  "latitude": 8.7701,
  "longitude": 80.6002
},
{
  "_id": {
    "$oid": "670bd14d4c81abc99fd59086"
  },
  "city": "Vavuniya South",
  "name": "NK Tyre House & Service",
  "type1": "tyre",
  "whatsapp": " https://wa.me/+94756814599",
  "local": 756814599,
  "latitude": 8.7801,
  "longitude": 80.6012
},
{
  "_id": {
    "$oid": "670bd14d4c81abc99fd59087"
  },
  "city": "Omanthai",
  "name": "NK Tyre House & Service",
  "type1": "tyre",
  "whatsapp": " https://wa.me/+94756814599",
  "local": 756814599,
  "latitude": 8.5801,
  "longitude": 80.8012
},
{
  "_id": {
    "$oid": "670bd14d4c81abc99fd59088"
  },
  "city": "Madukanda",
  "name": "NK Tyre House & Service",
  "type1": "tyre",
  "whatsapp": " https://wa.me/+94756814599",
  "local": 756814599,
  "latitude": 8.5351,
  "longitude": 80.8072
},
{
  "_id": {
    "$oid": "670bd14d4c81abc99fd59089"
  },
  "city": "Kurumankadu",
  "name": "NK Tyre House & Service",
  "type1": "tyre",
  "whatsapp": " https://wa.me/+94756814599",
  "local": 756814599,
  "latitude": 8.5201,
  "longitude": 80.85
},
{
  "_id": {
    "$oid": "670bd14d4c81abc99fd5908a"
  },
  "city": "Vairavapuliyankulam",
  "name": "NK Tyre House & Service",
  "type1": "tyre",
  "whatsapp": " https://wa.me/+94756814599",
  "local": 756814599,
  "latitude": 8.5101,
  "longitude": 80.9302
},
{
  "_id": {
    "$oid": "670bd14d4c81abc99fd5908b"
  },
  "city": "Kalmunai",
  "name": "NK Tyre House & Service",
  "type1": "tyre",
  "whatsapp": " https://wa.me/+94756814599",
  "local": 756814599,
  "latitude": 7.4291,
  "longitude": 81.7282
},
{
  "_id": {
    "$oid": "670bd14d4c81abc99fd5908c"
  },
  "city": "Uhana",
  "name": "NK Tyre House & Service",
  "type1": "tyre",
  "whatsapp": " https://wa.me/+94756814599",
  "local": 756814599,
  "latitude": 7.2641,
  "longitude": 81.6892
},
{
  "_id": {
    "$oid": "670bd14d4c81abc99fd5908d"
  },
  "city": "Akkaraipattu",
  "name": "NK Tyre House & Service",
  "type1": "tyre",
  "whatsapp": " https://wa.me/+94756814599",
  "local": 756814599,
  "latitude": 7.5381,
  "longitude": 81.7972
},
{
  "_id": {
    "$oid": "670bd14d4c81abc99fd5908e"
  },
  "city": "Addalachchenai",
  "name": "NK Tyre House & Service",
  "type1": "tyre",
  "whatsapp": " https://wa.me/+94756814599",
  "local": 756814599,
  "latitude": 7.4581,
  "longitude": 81.7322
},
{
  "_id": {
    "$oid": "670bd14d4c81abc99fd5908f"
  },
  "city": "Sammanthurai",
  "name": "NK Tyre House & Service",
  "type1": "tyre",
  "whatsapp": " https://wa.me/+94756814599",
  "local": 756814599,
  "latitude": 7.5201,
  "longitude": 81.7502
},
{
  "_id": {
    "$oid": "670bd14d4c81abc99fd59090"
  },
  "city": "Pottuvil",
  "name": "NK Tyre House & Service",
  "type1": "tyre",
  "whatsapp": " https://wa.me/+94756814599",
  "local": 756814599,
  "latitude": 7.0731,
  "longitude": 81.7972
},
{
  "_id": {
    "$oid": "670bd14d4c81abc99fd59091"
  },
  "city": "Kalmadu",
  "name": "NK Tyre House & Service",
  "type1": "tyre",
  "whatsapp": " https://wa.me/+94756814599",
  "local": 756814599,
  "latitude": 7.4161,
  "longitude": 81.7832
},
{
  "_id": {
    "$oid": "670bd14d4c81abc99fd59092"
  },
  "city": "Madhu",
  "name": "NK Tyre House & Service",
  "type1": "tyre",
  "whatsapp": " https://wa.me/+94756814599",
  "local": 756814599,
  "latitude": 8.1081,
  "longitude": 80.9562
},
{
  "_id": {
    "$oid": "670bd14d4c81abc99fd59093"
  },
  "city": "Pesalai",
  "name": "NK Tyre House & Service",
  "type1": "tyre",
  "whatsapp": " https://wa.me/+94756814599",
  "local": 756814599,
  "latitude": 8.1951,
  "longitude": 80.9412
},
{
  "_id": {
    "$oid": "670bd14d4c81abc99fd59094"
  },
  "city": "Nanattan",
  "name": "NK Tyre House & Service",
  "type1": "tyre",
  "whatsapp": " https://wa.me/+94756814599",
  "local": 756814599,
  "latitude": 8.0581,
  "longitude": 80.9232
},
{
  "_id": {
    "$oid": "670bd14d4c81abc99fd59095"
  },
  "city": "Musali",
  "name": "NK Tyre House & Service",
  "type1": "tyre",
  "whatsapp": " https://wa.me/+94756814599",
  "local": 756814599,
  "latitude": 8.5661,
  "longitude": 80.0802
},
{
  "_id": {
    "$oid": "670bd14d4c81abc99fd59096"
  },
  "city": "Mannar Island",
  "name": "NK Tyre House & Service",
  "type1": "tyre",
  "whatsapp": " https://wa.me/+94756814599",
  "local": 756814599,
  "latitude": 8.9781,
  "longitude": 79.9862
},
{
  "_id": {
    "$oid": "670bd14d4c81abc99fd59097"
  },
  "city": "Vankalai",
  "name": "NK Tyre House & Service",
  "type1": "tyre",
  "whatsapp": " https://wa.me/+94756814599",
  "local": 756814599,
  "latitude": 8.8661,
  "longitude": 79.9882
},
{
  "_id": {
    "$oid": "670bd14d4c81abc99fd59098"
  },
  "city": "Elephant Pass",
  "name": "NK Tyre House & Service",
  "type1": "tyre",
  "whatsapp": " https://wa.me/+94756814599",
  "local": 756814599,
  "latitude": 9.1311,
  "longitude": 80.2462
},
{
  "_id": {
    "$oid": "670bd14d4c81abc99fd59099"
  },
  "city": "Poonakary",
  "name": "NK Tyre House & Service",
  "type1": "tyre",
  "whatsapp": " https://wa.me/+94756814599",
  "local": 756814599,
  "latitude": 9.1521,
  "longitude": 80.3712
},
{
  "_id": {
    "$oid": "670bd14d4c81abc99fd5909a"
  },
  "city": "Karachchi",
  "name": "NK Tyre House & Service",
  "type1": "tyre",
  "whatsapp": " https://wa.me/+94756814599",
  "local": 756814599,
  "latitude": 9.1361,
  "longitude": 80.4062
},
{
  "_id": {
    "$oid": "670bd14d4c81abc99fd5909b"
  },
  "city": "Mankulam",
  "name": "NK Tyre House & Service",
  "type1": "tyre",
  "whatsapp": " https://wa.me/+94756814599",
  "local": 756814599,
  "latitude": 9.0771,
  "longitude": 80.4132
},
{
  "_id": {
    "$oid": "670bd14d4c81abc99fd5909c"
  },
  "city": "Paranthan",
  "name": "NK Tyre House & Service",
  "type1": "tyre",
  "whatsapp": " https://wa.me/+94756814599",
  "local": 756814599,
  "latitude": 9.2201,
  "longitude": 80.4186
},
{
  "_id": {
    "$oid": "670bd14d4c81abc99fd5909d"
  },
  "city": "Vishvamadu",
  "name": "NK Tyre House & Service",
  "type1": "tyre",
  "whatsapp": " https://wa.me/+94756814599",
  "local": 756814599,
  "latitude": 9.2561,
  "longitude": 80.4502
},
{
  "_id": {
    "$oid": "670bd14d4c81abc99fd5909e"
  },
  "city": "Thunukkai",
  "name": "NK Tyre House & Service",
  "type1": "tyre",
  "whatsapp": " https://wa.me/+94756814599",
  "local": 756814599,
  "latitude": 9.3241,
  "longitude": 80.4362
},
{
  "_id": {
    "$oid": "670bd14d4c81abc99fd5909f"
  },
  "city": "Ranna",
  "name": "NK Tyre House & Service",
  "type1": "tyre",
  "whatsapp": " https://wa.me/+94756814599",
  "local": 756814599,
  "latitude": 6.0801,
  "longitude": 80.3112
},
{
  "_id": {
    "$oid": "670bd14d4c81abc99fd590a0"
  },
  "city": "Hakmana",
  "name": "NK Tyre House & Service",
  "type1": "tyre",
  "whatsapp": " https://wa.me/+94756814599",
  "local": 756814599,
  "latitude": 6.0961,
  "longitude": 80.2832
},
{
  "_id": {
    "$oid": "670bd14d4c81abc99fd590a1"
  },
  "city": "Bandaragama",
  "name": "NK Tyre House & Service",
  "type1": "tyre",
  "whatsapp": " https://wa.me/+94756814599",
  "local": 756814599,
  "latitude": 6.7371,
  "longitude": 79.9892
},
{
  "_id": {
    "$oid": "670bd14d4c81abc99fd590a2"
  },
  "city": "Beruwala",
  "name": "NK Tyre House & Service",
  "type1": "tyre",
  "whatsapp": " https://wa.me/+94756814599",
  "local": 756814599,
  "latitude": 6.3961,
  "longitude": 79.9512
},
{
  "_id": {
    "$oid": "670bd14d4c81abc99fd590a3"
  },
  "city": "Wadduwa",
  "name": "NK Tyre House & Service",
  "type1": "tyre",
  "whatsapp": " https://wa.me/+94756814599",
  "local": 756814599,
  "latitude": 6.7031,
  "longitude": 79.9792
},
{
  "_id": {
    "$oid": "670bd14d4c81abc99fd590a4"
  },
  "city": "Horana",
  "name": "NK Tyre House & Service",
  "type1": "tyre",
  "whatsapp": " https://wa.me/+94756814599",
  "local": 756814599,
  "latitude": 6.7781,
  "longitude": 80.0952
},
{
  "_id": {
    "$oid": "670bd14d4c81abc99fd590a5"
  },
  "city": "Ingiriya",
  "name": "NK Tyre House & Service",
  "type1": "tyre",
  "whatsapp": " https://wa.me/+94756814599",
  "local": 756814599,
  "latitude": 6.8371,
  "longitude": 80.0592
},
{
  "_id": {
    "$oid": "670bd14d4c81abc99fd590a6"
  },
  "city": "Mathugama",
  "name": "NK Tyre House & Service",
  "type1": "tyre",
  "whatsapp": " https://wa.me/+94756814599",
  "local": 756814599,
  "latitude": 6.5561,
  "longitude": 80.1682
},
{
  "_id": {
    "$oid": "670bd14d4c81abc99fd590a7"
  },
  "city": "Dikwella",
  "name": "NK Tyre House & Service",
  "type1": "tyre",
  "whatsapp": " https://wa.me/+94756814599",
  "local": 756814599,
  "latitude": 6.2611,
  "longitude": 80.5162
},
{
  "_id": {
    "$oid": "670bd14d4c81abc99fd590a8"
  },
  "city": "Weligama",
  "name": "NK Tyre House & Service",
  "type1": "tyre",
  "whatsapp": " https://wa.me/+94756814599",
  "local": 756814599,
  "latitude": 5.9741,
  "longitude": 80.4352
},
{
  "_id": {
    "$oid": "670bd14d4c81abc99fd590a9"
  },
  "city": "Devinuwara",
  "name": "NK Tyre House & Service",
  "type1": "tyre",
  "whatsapp": " https://wa.me/+94756814599",
  "local": 756814599,
  "latitude": 5.9571,
  "longitude": 80.3462
},
{
  "_id": {
    "$oid": "670bd14d4c81abc99fd590aa"
  },
  "city": "Mirissa",
  "name": "NK Tyre House & Service",
  "type1": "tyre",
  "whatsapp": " https://wa.me/+94756814599",
  "local": 756814599,
  "latitude": 5.9501,
  "longitude": 80.4512
},
{
  "_id": {
    "$oid": "670bd14d4c81abc99fd590ab"
  },
  "city": "Kalutara",
  "name": "NK Tyre House & Service",
  "type1": "tyre",
  "whatsapp": " https://wa.me/+94756814599",
  "local": 756814599,
  "latitude": 6.5761,
  "longitude": 79.9602
},
{
  "_id": {
    "$oid": "670bd14d4c81abc99fd590ac"
  },
  "city": "Beruwala",
  "name": "NK Tyre House & Service",
  "type1": "tyre",
  "whatsapp": " https://wa.me/+94756814599",
  "local": 756814599,
  "latitude": 6.3971,
  "longitude": 79.9512
},
{
  "_id": {
    "$oid": "670bd14d4c81abc99fd590ad"
  },
  "city": "Panadura",
  "name": "NK Tyre House & Service",
  "type1": "tyre",
  "whatsapp": " https://wa.me/+94756814599",
  "local": 756814599,
  "latitude": 6.7421,
  "longitude": 79.9872
},
{
  "_id": {
    "$oid": "670bd14d4c81abc99fd590ae"
  },
  "city": "Wadduwa",
  "name": "NK Tyre House & Service",
  "type1": "tyre",
  "whatsapp": " https://wa.me/+94756814599",
  "local": 756814599,
  "latitude": 6.7031,
  "longitude": 79.9792
},
{
  "_id": {
    "$oid": "670bd14d4c81abc99fd590af"
  },
  "city": "Horana",
  "name": "NK Tyre House & Service",
  "type1": "tyre",
  "whatsapp": " https://wa.me/+94756814599",
  "local": 756814599,
  "latitude": 6.7781,
  "longitude": 80.0952
},
{
  "_id": {
    "$oid": "670bd14d4c81abc99fd590b0"
  },
  "city": "Ingiriya",
  "name": "NK Tyre House & Service",
  "type1": "tyre",
  "whatsapp": " https://wa.me/+94756814599",
  "local": 756814599,
  "latitude": 6.8371,
  "longitude": 80.0592
},
{
  "_id": {
    "$oid": "670bd14d4c81abc99fd590b1"
  },
  "city": "Mathugama",
  "name": "NK Tyre House & Service",
  "type1": "tyre",
  "whatsapp": " https://wa.me/+94756814599",
  "local": 756814599,
  "latitude": 6.5561,
  "longitude": 80.1682
},
{
  "_id": {
    "$oid": "670bd14d4c81abc99fd590b2"
  },
  "city": "Bandaragama",
  "name": "NK Tyre House & Service",
  "type1": "tyre",
  "whatsapp": " https://wa.me/+94756814599",
  "local": 756814599,
  "latitude": 6.7371,
  "longitude": 79.9892
},
{
  "_id": {
    "$oid": "670bd14d4c81abc99fd590b3"
  },
  "city": "Bingiriya",
  "name": "NK Tyre House & Service",
  "type1": "tyre",
  "whatsapp": " https://wa.me/+94756814599",
  "local": 756814599,
  "latitude": 7.0181,
  "longitude": 80.1902
},
{
  "_id": {
    "$oid": "670bd14d4c81abc99fd590b4"
  },
  "city": "Dambadeniya",
  "name": "NK Tyre House & Service",
  "type1": "tyre",
  "whatsapp": " https://wa.me/+94756814599",
  "local": 756814599,
  "latitude": 7.1151,
  "longitude": 80.2862
},
{
  "_id": {
    "$oid": "670bd14d4c81abc99fd590b5"
  },
  "city": "Wariyapola",
  "name": "NK Tyre House & Service",
  "type1": "tyre",
  "whatsapp": " https://wa.me/+94756814599",
  "local": 756814599,
  "latitude": 7.0731,
  "longitude": 80.3332
},
{
  "_id": {
    "$oid": "670bd14d4c81abc99fd590b6"
  },
  "city": "Chilaw",
  "name": "NK Tyre House & Service",
  "type1": "tyre",
  "whatsapp": " https://wa.me/+94756814599",
  "local": 756814599,
  "latitude": 7.5661,
  "longitude": 79.9712
},
{
  "_id": {
    "$oid": "670bd14d4c81abc99fd590b7"
  },
  "city": "Anamaduwa",
  "name": "NK Tyre House & Service",
  "type1": "tyre",
  "whatsapp": " https://wa.me/+94756814599",
  "local": 756814599,
  "latitude": 7.5801,
  "longitude": 80.0667
},
{
  "_id": {
    "$oid": "670bd14d4c81abc99fd590b8"
  },
  "city": "Mundel",
  "name": "NK Tyre House & Service",
  "type1": "tyre",
  "whatsapp": " https://wa.me/+94756814599",
  "local": 756814599,
  "latitude": 7.6421,
  "longitude": 80.1762
},
{
  "_id": {
    "$oid": "670bd14d4c81abc99fd590b9"
  },
  "city": "Kakkapalliya",
  "name": "NK Tyre House & Service",
  "type1": "tyre",
  "whatsapp": " https://wa.me/+94756814599",
  "local": 756814599,
  "latitude": 7.6791,
  "longitude": 80.1452
},
{
  "_id": {
    "$oid": "670bd14d4c81abc99fd590ba"
  },
  "city": "Nawagaththegama",
  "name": "NK Tyre House & Service",
  "type1": "tyre",
  "whatsapp": " https://wa.me/+94756814599",
  "local": 756814599,
  "latitude": 7.6061,
  "longitude": 80.0392
},
{
  "_id": {
    "$oid": "670bd14d4c81abc99fd590bb"
  },
  "city": "Palavi",
  "name": "NK Tyre House & Service",
  "type1": "tyre",
  "whatsapp": " https://wa.me/+94756814599",
  "local": 756814599,
  "latitude": 7.6291,
  "longitude": 80.0562
},
{
  "_id": {
    "$oid": "670bd14d4c81abc99fd590bc"
  },
  "city": "Marawila",
  "name": "NK Tyre House & Service",
  "type1": "tyre",
  "whatsapp": " https://wa.me/+94756814599",
  "local": 756814599,
  "latitude": 7.6311,
  "longitude": 80.0372
},
{
  "_id": {
    "$oid": "670bd14d4c81abc99fd590bd"
  },
  "city": "Mihintale",
  "name": "NK Tyre House & Service",
  "type1": "tyre",
  "whatsapp": " https://wa.me/+94756814599",
  "local": 756814599,
  "latitude": 8.3451,
  "longitude": 80.5982
},
{
  "_id": {
    "$oid": "670bd14d4c81abc99fd590be"
  },
  "city": "Medawachchiya",
  "name": "NK Tyre House & Service",
  "type1": "tyre",
  "whatsapp": " https://wa.me/+94756814599",
  "local": 756814599,
  "latitude": 8.3861,
  "longitude": 80.5562
},
{
  "_id": {
    "$oid": "670bd14d4c81abc99fd590bf"
  },
  "city": "Palugaswewa",
  "name": "NK Tyre House & Service",
  "type1": "tyre",
  "whatsapp": " https://wa.me/+94756814599",
  "local": 756814599,
  "latitude": 8.3401,
  "longitude": 80.6219
},
{
  "_id": {
    "$oid": "670bd14d4c81abc99fd590c0"
  },
  "city": "Thalawa",
  "name": "NK Tyre House & Service",
  "type1": "tyre",
  "whatsapp": " https://wa.me/+94756814599",
  "local": 756814599,
  "latitude": 8.3401,
  "longitude": 80.5002
},
{
  "_id": {
    "$oid": "670bd14d4c81abc99fd590c1"
  },
  "city": "Kekirawa",
  "name": "NK Tyre House & Service",
  "type1": "tyre",
  "whatsapp": " https://wa.me/+94756814599",
  "local": 756814599,
  "latitude": 8.3491,
  "longitude": 80.5092
},
{
  "_id": {
    "$oid": "670bd14d4c81abc99fd590c2"
  },
  "city": "Galnewa",
  "name": "NK Tyre House & Service",
  "type1": "tyre",
  "whatsapp": " https://wa.me/+94756814599",
  "local": 756814599,
  "latitude": 8.2991,
  "longitude": 80.4952
},
{
  "_id": {
    "$oid": "670bd14d4c81abc99fd590c3"
  },
  "city": "Habarana",
  "name": "NK Tyre House & Service",
  "type1": "tyre",
  "whatsapp": " https://wa.me/+94756814599",
  "local": 756814599,
  "latitude": 8.0711,
  "longitude": 80.6252
},
{
  "_id": {
    "$oid": "670bd14d4c81abc99fd590c4"
  },
  "city": "Hingurakgoda",
  "name": "NK Tyre House & Service",
  "type1": "tyre",
  "whatsapp": " https://wa.me/+94756814599",
  "local": 756814599,
  "latitude": 8.0711,
  "longitude": 80.5792
},
{
  "_id": {
    "$oid": "670bd14d4c81abc99fd590c5"
  },
  "city": "Dimbulagala",
  "name": "NK Tyre House & Service",
  "type1": "tyre",
  "whatsapp": " https://wa.me/+94756814599",
  "local": 756814599,
  "latitude": 8.1561,
  "longitude": 81.1602
},
{
  "_id": {
    "$oid": "670bd14d4c81abc99fd590c6"
  },
  "city": "Lankapura",
  "name": "NK Tyre House & Service",
  "type1": "tyre",
  "whatsapp": " https://wa.me/+94756814599",
  "local": 756814599,
  "latitude": 8.2321,
  "longitude": 81.2112
},
{
  "_id": {
    "$oid": "670bd14d4c81abc99fd590c7"
  },
  "city": "Giritale",
  "name": "NK Tyre House & Service",
  "type1": "tyre",
  "whatsapp": " https://wa.me/+94756814599",
  "local": 756814599,
  "latitude": 8.2931,
  "longitude": 81.1922
},
{
  "_id": {
    "$oid": "670bd14d4c81abc99fd590c8"
  },
  "city": "Welikanda",
  "name": "NK Tyre House & Service",
  "type1": "tyre",
  "whatsapp": " https://wa.me/+94756814599",
  "local": 756814599,
  "latitude": 8.3521,
  "longitude": 81.2262
},
{
  "_id": {
    "$oid": "670bd14d4c81abc99fd590c9"
  },
  "city": "Mahaweli",
  "name": "NK Tyre House & Service",
  "type1": "tyre",
  "whatsapp": " https://wa.me/+94756814599",
  "local": 756814599,
  "latitude": 7.1151,
  "longitude": 80.6952
},
{
  "_id": {
    "$oid": "670bd14d4c81abc99fd590ca"
  },
  "city": "Kaduruwela",
  "name": "NK Tyre House & Service",
  "type1": "tyre",
  "whatsapp": " https://wa.me/+94756814599",
  "local": 756814599,
  "latitude": 7.7261,
  "longitude": 81.0162
},
{
  "_id": {
    "$oid": "670bd14d4c81abc99fd590cb"
  },
  "city": "Colombo",
  "name": "NK Tyre House & Service",
  "type1": "tyre",
  "whatsapp": " https://wa.me/+94756814599",
  "local": 756814599,
  "latitude": 6.9271,
  "longitude": 79.8612
},
{
  "_id": {
    "$oid": "670bd14d4c81abc99fd590cc"
  },
  "city": "Dehiwala-Mount Lavinia",
  "name": "NK Tyre House & Service",
  "type1": "tyre",
  "whatsapp": " https://wa.me/+94756814599",
  "local": 756814599,
  "latitude": 6.8511,
  "longitude": 79.8672
},
{
  "_id": {
    "$oid": "670bd14d4c81abc99fd590cd"
  },
  "city": "Negombo",
  "name": "NK Tyre House & Service",
  "type1": "tyre",
  "whatsapp": " https://wa.me/+94756814599",
  "local": 756814599,
  "latitude": 7.2091,
  "longitude": 79.8352
},
{
  "_id": {
    "$oid": "670bd14d4c81abc99fd590ce"
  },
  "city": "Kelaniya",
  "name": "NK Tyre House & Service",
  "type1": "tyre",
  "whatsapp": " https://wa.me/+94756814599",
  "local": 756814599,
  "latitude": 6.9601,
  "longitude": 79.9222
},
{
  "_id": {
    "$oid": "670bd14d4c81abc99fd590cf"
  },
  "city": "Moratuwa",
  "name": "NK Tyre House & Service",
  "type1": "tyre",
  "whatsapp": " https://wa.me/+94756814599",
  "local": 756814599,
  "latitude": 6.7731,
  "longitude": 79.8822
},
{
  "_id": {
    "$oid": "670bd14d4c81abc99fd590d0"
  },
  "city": "Kaduwela",
  "name": "NK Tyre House & Service",
  "type1": "tyre",
  "whatsapp": " https://wa.me/+94756814599",
  "local": 756814599,
  "latitude": 6.9351,
  "longitude": 79.9782
},
{
  "_id": {
    "$oid": "670bd14d4c81abc99fd590d1"
  },
  "city": "Wattala",
  "name": "NK Tyre House & Service",
  "type1": "tyre",
  "whatsapp": " https://wa.me/+94756814599",
  "local": 756814599,
  "latitude": 6.9911,
  "longitude": 79.8822
},
{
  "_id": {
    "$oid": "670bd14d4c81abc99fd590d2"
  },
  "city": "Sri Jayawardenepura Kotte",
  "name": "NK Tyre House & Service",
  "type1": "tyre",
  "whatsapp": " https://wa.me/+94756814599",
  "local": 756814599,
  "latitude": 6.9271,
  "longitude": 79.9572
},
{
  "_id": {
    "$oid": "670bd14d4c81abc99fd590d3"
  },
  "city": "Galle",
  "name": "NK Tyre House & Service",
  "type1": "tyre",
  "whatsapp": " https://wa.me/+94756814599",
  "local": 756814599,
  "latitude": 6.0531,
  "longitude": 80.2212
},
{
  "_id": {
    "$oid": "670bd14d4c81abc99fd590d4"
  },
  "city": "Ambalangoda",
  "name": "NK Tyre House & Service",
  "type1": "tyre",
  "whatsapp": " https://wa.me/+94756814599",
  "local": 756814599,
  "latitude": 6.2411,
  "longitude": 80.0542
},
{
  "_id": {
    "$oid": "670bd14d4c81abc99fd590d5"
  },
  "city": "Hikkaduwa",
  "name": "NK Tyre House & Service",
  "type1": "tyre",
  "whatsapp": " https://wa.me/+94756814599",
  "local": 756814599,
  "latitude": 6.1401,
  "longitude": 80.1042
},
{
  "_id": {
    "$oid": "670bd14d4c81abc99fd590d6"
  },
  "city": "Unawatuna",
  "name": "NK Tyre House & Service",
  "type1": "tyre",
  "whatsapp": " https://wa.me/+94756814599",
  "local": 756814599,
  "latitude": 6.0091,
  "longitude": 80.2462
},
{
  "_id": {
    "$oid": "670bd14d4c81abc99fd590d7"
  },
  "city": "Balapitiya",
  "name": "NK Tyre House & Service",
  "type1": "tyre",
  "whatsapp": " https://wa.me/+94756814599",
  "local": 756814599,
  "latitude": 6.2781,
  "longitude": 80.0342
},
{
  "_id": {
    "$oid": "670bd14d4c81abc99fd590d8"
  },
  "city": "Elpitiya",
  "name": "NK Tyre House & Service",
  "type1": "tyre",
  "whatsapp": " https://wa.me/+94756814599",
  "local": 756814599,
  "latitude": 6.3301,
  "longitude": 80.1542
},
{
  "_id": {
    "$oid": "670bd14d4c81abc99fd590d9"
  },
  "city": "Labugama",
  "name": "NK Tyre House & Service",
  "type1": "tyre",
  "whatsapp": " https://wa.me/+94756814599",
  "local": 756814599,
  "latitude": 6.8281,
  "longitude": 80.0842
},
{
  "_id": {
    "$oid": "670bd14d4c81abc99fd590da"
  },
  "city": "Nagoda",
  "name": "NK Tyre House & Service",
  "type1": "tyre",
  "whatsapp": " https://wa.me/+94756814599",
  "local": 756814599,
  "latitude": 6.6031,
  "longitude": 80.1442
},
{
  "_id": {
    "$oid": "670bd14d4c81abc99fd590db"
  },
  "city": "Gampaha",
  "name": "NK Tyre House & Service",
  "type1": "tyre",
  "whatsapp": " https://wa.me/+94756814599",
  "local": 756814599,
  "latitude": 7.0911,
  "longitude": 79.9982
},
{
  "_id": {
    "$oid": "670bd14d4c81abc99fd590dc"
  },
  "city": "Negombo",
  "name": "NK Tyre House & Service",
  "type1": "tyre",
  "whatsapp": " https://wa.me/+94756814599",
  "local": 756814599,
  "latitude": 7.2091,
  "longitude": 79.8352
},
{
  "_id": {
    "$oid": "670bd14d4c81abc99fd590dd"
  },
  "city": "Kelaniya",
  "name": "NK Tyre House & Service",
  "type1": "tyre",
  "whatsapp": " https://wa.me/+94756814599",
  "local": 756814599,
  "latitude": 6.9601,
  "longitude": 79.9222
},
{
  "_id": {
    "$oid": "670bd14d4c81abc99fd590de"
  },
  "city": "Ja-Ela",
  "name": "NK Tyre House & Service",
  "type1": "tyre",
  "whatsapp": " https://wa.me/+94756814599",
  "local": 756814599,
  "latitude": 7.0811,
  "longitude": 79.8912
},
{
  "_id": {
    "$oid": "670bd14d4c81abc99fd590df"
  },
  "city": "Minuwangoda",
  "name": "NK Tyre House & Service",
  "type1": "tyre",
  "whatsapp": " https://wa.me/+94756814599",
  "local": 756814599,
  "latitude": 7.1751,
  "longitude": 80.0142
},
{
  "_id": {
    "$oid": "670bd14d4c81abc99fd590e0"
  },
  "city": "Mahara",
  "name": "NK Tyre House & Service",
  "type1": "tyre",
  "whatsapp": " https://wa.me/+94756814599",
  "local": 756814599,
  "latitude": 7.0061,
  "longitude": 79.9762
},
{
  "_id": {
    "$oid": "670bd14d4c81abc99fd590e1"
  },
  "city": "Wattala",
  "name": "NK Tyre House & Service",
  "type1": "tyre",
  "whatsapp": " https://wa.me/+94756814599",
  "local": 756814599,
  "latitude": 6.9911,
  "longitude": 79.8822
},
{
  "_id": {
    "$oid": "670bd14d4c81abc99fd590e2"
  },
  "city": "Divulapitiya",
  "name": "NK Tyre House & Service",
  "type1": "tyre",
  "whatsapp": " https://wa.me/+94756814599",
  "local": 756814599,
  "latitude": 7.2781,
  "longitude": 80.0152
},
{
  "_id": {
    "$oid": "670bd14d4c81abc99fd590e3"
  },
  "city": "Kandy",
  "name": "NK Tyre House & Service",
  "type1": "tyre",
  "whatsapp": " https://wa.me/+94756814599",
  "local": 756814599,
  "latitude": 7.2901,
  "longitude": 80.6332
},
{
  "_id": {
    "$oid": "670bd14d4c81abc99fd590e4"
  },
  "city": "Peradeniya",
  "name": "NK Tyre House & Service",
  "type1": "tyre",
  "whatsapp": " https://wa.me/+94756814599",
  "local": 756814599,
  "latitude": 7.2711,
  "longitude": 80.5942
},
{
  "_id": {
    "$oid": "670bd14d4c81abc99fd590e5"
  },
  "city": "Nawalapitiya",
  "name": "NK Tyre House & Service",
  "type1": "tyre",
  "whatsapp": " https://wa.me/+94756814599",
  "local": 756814599,
  "latitude": 7.0471,
  "longitude": 80.5332
},
{
  "_id": {
    "$oid": "670bd14d4c81abc99fd590e6"
  },
  "city": "Mawanella",
  "name": "NK Tyre House & Service",
  "type1": "tyre",
  "whatsapp": " https://wa.me/+94756814599",
  "local": 756814599,
  "latitude": 7.2541,
  "longitude": 80.4422
},
{
  "_id": {
    "$oid": "670bd14d4c81abc99fd590e7"
  },
  "city": "Gampola",
  "name": "NK Tyre House & Service",
  "type1": "tyre",
  "whatsapp": " https://wa.me/+94756814599",
  "local": 756814599,
  "latitude": 7.1621,
  "longitude": 80.5702
},
{
  "_id": {
    "$oid": "670bd14d4c81abc99fd590e8"
  },
  "city": "Wattegama",
  "name": "NK Tyre House & Service",
  "type1": "tyre",
  "whatsapp": " https://wa.me/+94756814599",
  "local": 756814599,
  "latitude": 7.4021,
  "longitude": 80.6942
},
{
  "_id": {
    "$oid": "670bd14d4c81abc99fd590e9"
  },
  "city": "Kegalle",
  "name": "NK Tyre House & Service",
  "type1": "tyre",
  "whatsapp": " https://wa.me/+94756814599",
  "local": 756814599,
  "latitude": 7.2511,
  "longitude": 80.3462
},
{
  "_id": {
    "$oid": "670bd14d4c81abc99fd590ea"
  },
  "city": "Nittambuwa",
  "name": "NK Tyre House & Service",
  "type1": "tyre",
  "whatsapp": " https://wa.me/+94756814599",
  "local": 756814599,
  "latitude": 7.1441,
  "longitude": 80.0622
},
{
  "_id": {
    "$oid": "670bd14d4c81abc99fd590eb"
  },
  "city": "Matale",
  "name": "NK Tyre House & Service",
  "type1": "tyre",
  "whatsapp": " https://wa.me/+94756814599",
  "local": 756814599,
  "latitude": 7.4671,
  "longitude": 80.6232
},
{
  "_id": {
    "$oid": "670bd14d4c81abc99fd590ec"
  },
  "city": "Dambulla",
  "name": "NK Tyre House & Service",
  "type1": "tyre",
  "whatsapp": " https://wa.me/+94756814599",
  "local": 756814599,
  "latitude": 7.8731,
  "longitude": 80.6512
},
{
  "_id": {
    "$oid": "670bd14d4c81abc99fd590ed"
  },
  "city": "Rattota",
  "name": "NK Tyre House & Service",
  "type1": "tyre",
  "whatsapp": " https://wa.me/+94756814599",
  "local": 756814599,
  "latitude": 7.4921,
  "longitude": 80.6962
},
{
  "_id": {
    "$oid": "670bd14d4c81abc99fd590ee"
  },
  "city": "Ukuwela",
  "name": "NK Tyre House & Service",
  "type1": "tyre",
  "whatsapp": " https://wa.me/+94756814599",
  "local": 756814599,
  "latitude": 7.4821,
  "longitude": 80.6152
},
{
  "_id": {
    "$oid": "670bd14d4c81abc99fd590ef"
  },
  "city": "Galewela",
  "name": "NK Tyre House & Service",
  "type1": "tyre",
  "whatsapp": " https://wa.me/+94756814599",
  "local": 756814599,
  "latitude": 7.8231,
  "longitude": 80.5722
},
{
  "_id": {
    "$oid": "670bd14d4c81abc99fd590f0"
  },
  "city": "Hettipola",
  "name": "NK Tyre House & Service",
  "type1": "tyre",
  "whatsapp": " https://wa.me/+94756814599",
  "local": 756814599,
  "latitude": 7.5731,
  "longitude": 80.1192
},
{
  "_id": {
    "$oid": "670bd14d4c81abc99fd590f1"
  },
  "city": "Laggala",
  "name": "NK Tyre House & Service",
  "type1": "tyre",
  "whatsapp": " https://wa.me/+94756814599",
  "local": 756814599,
  "latitude": 7.5551,
  "longitude": 80.8052
},
{
  "_id": {
    "$oid": "670bd14d4c81abc99fd590f2"
  },
  "city": "Nuwara Eliya",
  "name": "NK Tyre House & Service",
  "type1": "tyre",
  "whatsapp": " https://wa.me/+94756814599",
  "local": 756814599,
  "latitude": 6.9491,
  "longitude": 80.7892
},
{
  "_id": {
    "$oid": "670bd14d4c81abc99fd590f3"
  },
  "city": "Ella",
  "name": "NK Tyre House & Service",
  "type1": "tyre",
  "whatsapp": " https://wa.me/+94756814599",
  "local": 756814599,
  "latitude": 6.8721,
  "longitude": 81.0462
},
{
  "_id": {
    "$oid": "670bd14d4c81abc99fd590f4"
  },
  "city": "Badulla",
  "name": "NK Tyre House & Service",
  "type1": "tyre",
  "whatsapp": " https://wa.me/+94756814599",
  "local": 756814599,
  "latitude": 6.9891,
  "longitude": 81.0552
},
{
  "_id": {
    "$oid": "670bd14d4c81abc99fd590f5"
  },
  "city": "Bandarawela",
  "name": "NK Tyre House & Service",
  "type1": "tyre",
  "whatsapp": " https://wa.me/+94756814599",
  "local": 756814599,
  "latitude": 6.8321,
  "longitude": 80.9862
},
{
  "_id": {
    "$oid": "670bd14d4c81abc99fd590f6"
  },
  "city": "Ella",
  "name": "NK Tyre House & Service",
  "type1": "tyre",
  "whatsapp": " https://wa.me/+94756814599",
  "local": 756814599,
  "latitude": 6.8721,
  "longitude": 81.0462
},
{
  "_id": {
    "$oid": "670bd14d4c81abc99fd590f7"
  },
  "city": "Haldummulla",
  "name": "NK Tyre House & Service",
  "type1": "tyre",
  "whatsapp": " https://wa.me/+94756814599",
  "local": 756814599,
  "latitude": 6.7321,
  "longitude": 80.8872
},
{
  "_id": {
    "$oid": "670bd14d4c81abc99fd590f8"
  },
  "city": "Mahiyanganaya",
  "name": "NK Tyre House & Service",
  "type1": "tyre",
  "whatsapp": " https://wa.me/+94756814599",
  "local": 756814599,
  "latitude": 7.3391,
  "longitude": 81.0152
},
{
  "_id": {
    "$oid": "670bd14d4c81abc99fd590f9"
  },
  "city": "Monaragala",
  "name": "NK Tyre House & Service",
  "type1": "tyre",
  "whatsapp": " https://wa.me/+94756814599",
  "local": 756814599,
  "latitude": 6.8711,
  "longitude": 81.3482
},
{
  "_id": {
    "$oid": "670bd14d4c81abc99fd590fa"
  },
  "city": "Kithulgala",
  "name": "NK Tyre House & Service",
  "type1": "tyre",
  "whatsapp": " https://wa.me/+94756814599",
  "local": 756814599,
  "latitude": 6.9871,
  "longitude": 80.4242
},
{
  "_id": {
    "$oid": "670bd14d4c81abc99fd590fb"
  },
  "city": "Haliela",
  "name": "NK Tyre House & Service",
  "type1": "tyre",
  "whatsapp": " https://wa.me/+94756814599",
  "local": 756814599,
  "latitude": 6.9771,
  "longitude": 81.0502
},
{
  "_id": {
    "$oid": "670bd14d4c81abc99fd590fc"
  },
  "city": "Bandarawela",
  "name": "NK Tyre House & Service",
  "type1": "tyre",
  "whatsapp": " https://wa.me/+94756814599",
  "local": 756814599,
  "latitude": 6.8321,
  "longitude": 80.9862
},
{
  "_id": {
    "$oid": "670bd14d4c81abc99fd590fd"
  },
  "city": "Monaragala",
  "name": "NK Tyre House & Service",
  "type1": "tyre",
  "whatsapp": " https://wa.me/+94756814599",
  "local": 756814599,
  "latitude": 6.8711,
  "longitude": 81.3482
},
{
  "_id": {
    "$oid": "670bd14d4c81abc99fd590fe"
  },
  "city": "Wellawaya",
  "name": "NK Tyre House & Service",
  "type1": "tyre",
  "whatsapp": " https://wa.me/+94756814599",
  "local": 756814599,
  "latitude": 6.7381,
  "longitude": 81.1052
},
{
  "_id": {
    "$oid": "670bd14d4c81abc99fd590ff"
  },
  "city": "Badulla",
  "name": "NK Tyre House & Service",
  "type1": "tyre",
  "whatsapp": " https://wa.me/+94756814599",
  "local": 756814599,
  "latitude": 6.9891,
  "longitude": 81.0552
},
{
  "_id": {
    "$oid": "670bd14d4c81abc99fd59100"
  },
  "city": "Mahiyanganaya",
  "name": "NK Tyre House & Service",
  "type1": "tyre",
  "whatsapp": " https://wa.me/+94756814599",
  "local": 756814599,
  "latitude": 7.3391,
  "longitude": 81.0152
},
{
  "_id": {
    "$oid": "670bd14d4c81abc99fd59101"
  },
  "city": "Bibile",
  "name": "NK Tyre House & Service",
  "type1": "tyre",
  "whatsapp": " https://wa.me/+94756814599",
  "local": 756814599,
  "latitude": 7.1571,
  "longitude": 81.2252
},
{
  "_id": {
    "$oid": "670bd14d4c81abc99fd59102"
  },
  "city": "Medagama",
  "name": "NK Tyre House & Service",
  "type1": "tyre",
  "whatsapp": " https://wa.me/+94756814599",
  "local": 756814599,
  "latitude": 7.0841,
  "longitude": 81.2982
},
{
  "_id": {
    "$oid": "670bd14d4c81abc99fd59103"
  },
  "city": "Thanamalwila",
  "name": "NK Tyre House & Service",
  "type1": "tyre",
  "whatsapp": " https://wa.me/+94756814599",
  "local": 756814599,
  "latitude": 6.4961,
  "longitude": 81.0782
},
{
  "_id": {
    "$oid": "670bd14d4c81abc99fd59104"
  },
  "city": "Siyambalanduwa",
  "name": "NK Tyre House & Service",
  "type1": "tyre",
  "whatsapp": " https://wa.me/+94756814599",
  "local": 756814599,
  "latitude": 6.9121,
  "longitude": 81.4492
},
{
  "_id": {
    "$oid": "670bd14d4c81abc99fd59105"
  },
  "city": "Haputale",
  "name": "NK Tyre House & Service",
  "type1": "tyre",
  "whatsapp": " https://wa.me/+94756814599",
  "local": 756814599,
  "latitude": 6.7651,
  "longitude": 80.9632
},
{
  "_id": {
    "$oid": "670bd14d4c81abc99fd59106"
  },
  "city": "Ambewela",
  "name": "NK Tyre House & Service",
  "type1": "tyre",
  "whatsapp": " https://wa.me/+94756814599",
  "local": 756814599,
  "latitude": 6.9051,
  "longitude": 80.8012
},
{
  "_id": {
    "$oid": "670bd14d4c81abc99fd59107"
  },
  "city": "Welimada",
  "name": "NK Tyre House & Service",
  "type1": "tyre",
  "whatsapp": " https://wa.me/+94756814599",
  "local": 756814599,
  "latitude": 6.9051,
  "longitude": 80.8852
},
{
  "_id": {
    "$oid": "670bd14d4c81abc99fd59108"
  },
  "city": "Kandy",
  "name": "NK Tyre House & Service",
  "type1": "tyre",
  "whatsapp": " https://wa.me/+94756814599",
  "local": 756814599,
  "latitude": 7.2901,
  "longitude": 80.6332
},
{
  "_id": {
    "$oid": "670bd14d4c81abc99fd59109"
  },
  "city": "Nanu Oya",
  "name": "NK Tyre House & Service",
  "type1": "tyre",
  "whatsapp": " https://wa.me/+94756814599",
  "local": 756814599,
  "latitude": 6.9801,
  "longitude": 80.7642
},
{
  "_id": {
    "$oid": "670bd14d4c81abc99fd5910a"
  },
  "city": "Ratnapura",
  "name": "NK Tyre House & Service",
  "type1": "tyre",
  "whatsapp": " https://wa.me/+94756814599",
  "local": 756814599,
  "latitude": 6.6821,
  "longitude": 80.3992
},
{
  "_id": {
    "$oid": "670bd14d4c81abc99fd5910b"
  },
  "city": "Balangoda",
  "name": "NK Tyre House & Service",
  "type1": "tyre",
  "whatsapp": " https://wa.me/+94756814599",
  "local": 756814599,
  "latitude": 6.6651,
  "longitude": 80.7062
},
{
  "_id": {
    "$oid": "670bd14d4c81abc99fd5910c"
  },
  "city": "Kegalle",
  "name": "NK Tyre House & Service",
  "type1": "tyre",
  "whatsapp": " https://wa.me/+94756814599",
  "local": 756814599,
  "latitude": 7.2511,
  "longitude": 80.3462
},
{
  "_id": {
    "$oid": "670bd14d4c81abc99fd5910d"
  },
  "city": "Mawanella",
  "name": "NK Tyre House & Service",
  "type1": "tyre",
  "whatsapp": " https://wa.me/+94756814599",
  "local": 756814599,
  "latitude": 7.2541,
  "longitude": 80.4422
},
{
  "_id": {
    "$oid": "670bd14d4c81abc99fd5910e"
  },
  "city": "Warakapola",
  "name": "NK Tyre House & Service",
  "type1": "tyre",
  "whatsapp": " https://wa.me/+94756814599",
  "local": 756814599,
  "latitude": 7.2301,
  "longitude": 80.1972
},
{
  "_id": {
    "$oid": "670bd14d4c81abc99fd5910f"
  },
  "city": "Rambukkana",
  "name": "NK Tyre House & Service",
  "type1": "tyre",
  "whatsapp": " https://wa.me/+94756814599",
  "local": 756814599,
  "latitude": 7.3191,
  "longitude": 80.3892
},
{
  "_id": {
    "$oid": "670bd14d4c81abc99fd59110"
  },
  "city": "Deraniyagala",
  "name": "NK Tyre House & Service",
  "type1": "tyre",
  "whatsapp": " https://wa.me/+94756814599",
  "local": 756814599,
  "latitude": 6.9551,
  "longitude": 80.2822
},
{
  "_id": {
    "$oid": "670bd14d4c81abc99fd59111"
  },
  "city": "Galigamuwa",
  "name": "NK Tyre House & Service",
  "type1": "tyre",
  "whatsapp": " https://wa.me/+94756814599",
  "local": 756814599,
  "latitude": 7.1951,
  "longitude": 80.3462
},
{
  "_id": {
    "$oid": "670bd14d4c81abc99fd59112"
  },
  "city": "Aranayaka",
  "name": "NK Tyre House & Service",
  "type1": "tyre",
  "whatsapp": " https://wa.me/+94756814599",
  "local": 756814599,
  "latitude": 7.1611,
  "longitude": 80.4622
},
{
  "_id": {
    "$oid": "670bd14d4c81abc99fd59113"
  },
  "city": "Yatiyantota",
  "name": "NK Tyre House & Service",
  "type1": "tyre",
  "whatsapp": " https://wa.me/+94756814599",
  "local": 756814599,
  "latitude": 7.0161,
  "longitude": 80.2532
},
{
  "_id": {
    "$oid": "670bd14d4c81abc99fd59114"
  },
  "city": "Elapatha",
  "name": "NK Tyre House & Service",
  "type1": "tyre",
  "whatsapp": " https://wa.me/+94756814599",
  "local": 756814599,
  "latitude": 6.7001,
  "longitude": 80.5242
},
{
  "_id": {
    "$oid": "670bd14d4c81abc99fd59115"
  },
  "city": "Jaffna",
  "name": "NK Tyre House & Service",
  "type1": "tyre",
  "whatsapp": " https://wa.me/+94756814599",
  "local": 756814599,
  "latitude": 9.6611,
  "longitude": 80.0252
},
{
  "_id": {
    "$oid": "670bd14d4c81abc99fd59116"
  },
  "city": "Chavakachcheri",
  "name": "NK Tyre House & Service",
  "type1": "tyre",
  "whatsapp": " https://wa.me/+94756814599",
  "local": 756814599,
  "latitude": 9.6571,
  "longitude": 80.2112
},
{
  "_id": {
    "$oid": "670bd14d4c81abc99fd59117"
  },
  "city": "Point Pedro",
  "name": "NK Tyre House & Service",
  "type1": "tyre",
  "whatsapp": " https://wa.me/+94756814599",
  "local": 756814599,
  "latitude": 9.8251,
  "longitude": 80.2362
},
{
  "_id": {
    "$oid": "670bd14d4c81abc99fd59118"
  },
  "city": "Kayts",
  "name": "NK Tyre House & Service",
  "type1": "tyre",
  "whatsapp": " https://wa.me/+94756814599",
  "local": 756814599,
  "latitude": 9.6831,
  "longitude": 79.9852
},
{
  "_id": {
    "$oid": "670bd14d4c81abc99fd59119"
  },
  "city": "Velanai",
  "name": "NK Tyre House & Service",
  "type1": "tyre",
  "whatsapp": " https://wa.me/+94756814599",
  "local": 756814599,
  "latitude": 9.6691,
  "longitude": 79.9102
},
{
  "_id": {
    "$oid": "670bd14d4c81abc99fd5911a"
  },
  "city": "Karainagar",
  "name": "NK Tyre House & Service",
  "type1": "tyre",
  "whatsapp": " https://wa.me/+94756814599",
  "local": 756814599,
  "latitude": 9.6931,
  "longitude": 79.9072
},
{
  "_id": {
    "$oid": "670bd14d4c81abc99fd5911b"
  },
  "city": "Chankanai",
  "name": "NK Tyre House & Service",
  "type1": "tyre",
  "whatsapp": " https://wa.me/+94756814599",
  "local": 756814599,
  "latitude": 9.7001,
  "longitude": 80.0442
},
{
  "_id": {
    "$oid": "670bd14d4c81abc99fd5911c"
  },
  "city": "Kankesanthurai",
  "name": "NK Tyre House & Service",
  "type1": "tyre",
  "whatsapp": " https://wa.me/+94756814599",
  "local": 756814599,
  "latitude": 9.8211,
  "longitude": 80.0412
},
{
  "_id": {
    "$oid": "670bd14d4c81abc99fd5911d"
  },
  "city": "Kuruwita",
  "name": "NK Tyre House & Service",
  "type1": "tyre",
  "whatsapp": " https://wa.me/+94756814599",
  "local": 756814599,
  "latitude": 6.7691,
  "longitude": 80.3552
},
{
  "_id": {
    "$oid": "670bd14d4c81abc99fd5911e"
  },
  "city": "Embilipitiya",
  "name": "NK Tyre House & Service",
  "type1": "tyre",
  "whatsapp": " https://wa.me/+94756814599",
  "local": 756814599,
  "latitude": 6.3361,
  "longitude": 80.8482
},
{
  "_id": {
    "$oid": "670bd14d4c81abc99fd5911f"
  },
  "city": "Kahawatta",
  "name": "NK Tyre House & Service",
  "type1": "tyre",
  "whatsapp": " https://wa.me/+94756814599",
  "local": 756814599,
  "latitude": 6.6191,
  "longitude": 80.5682
},
{
  "_id": {
    "$oid": "670bd14d4c81abc99fd59120"
  },
  "city": "Agalawatta",
  "name": "NK Tyre House & Service",
  "type1": "tyre",
  "whatsapp": " https://wa.me/+94756814599",
  "local": 756814599,
  "latitude": 6.5151,
  "longitude": 80.5372
},
{
  "_id": {
    "$oid": "670bd14d4c81abc99fd59121"
  },
  "city": "Eheliyagoda",
  "name": "NK Tyre House & Service",
  "type1": "tyre",
  "whatsapp": " https://wa.me/+94756814599",
  "local": 756814599,
  "latitude": 6.8741,
  "longitude": 80.2442
},
{
  "_id": {
    "$oid": "670bd14d4c81abc99fd59122"
  },
  "city": "Ampara",
  "name": "NK Tyre House & Service",
  "type1": "tyre",
  "whatsapp": " https://wa.me/+94756814599",
  "local": 756814599,
  "latitude": 7.2991,
  "longitude": 81.6822
},
{
  "_id": {
    "$oid": "670bd14d4c81abc99fd59123"
  },
  "city": "Kalmunai",
  "name": "NK Tyre House & Service",
  "type1": "tyre",
  "whatsapp": " https://wa.me/+94756814599",
  "local": 756814599,
  "latitude": 7.4091,
  "longitude": 81.8342
},
{
  "_id": {
    "$oid": "670bd14d4c81abc99fd59124"
  },
  "city": "Uhana",
  "name": "NK Tyre House & Service",
  "type1": "tyre",
  "whatsapp": " https://wa.me/+94756814599",
  "local": 756814599,
  "latitude": 7.2291,
  "longitude": 81.6592
},
{
  "_id": {
    "$oid": "670bd14d4c81abc99fd59125"
  },
  "city": "Akkaraipattu",
  "name": "NK Tyre House & Service",
  "type1": "tyre",
  "whatsapp": " https://wa.me/+94756814599",
  "local": 756814599,
  "latitude": 7.2211,
  "longitude": 81.8432
},
{
  "_id": {
    "$oid": "670bd14d4c81abc99fd59126"
  },
  "city": "Addalachchenai",
  "name": "NK Tyre House & Service",
  "type1": "tyre",
  "whatsapp": " https://wa.me/+94756814599",
  "local": 756814599,
  "latitude": 7.2401,
  "longitude": 81.8512
},
{
  "_id": {
    "$oid": "670bd14d4c81abc99fd59127"
  },
  "city": "Sammanthurai",
  "name": "NK Tyre House & Service",
  "type1": "tyre",
  "whatsapp": " https://wa.me/+94756814599",
  "local": 756814599,
  "latitude": 7.3611,
  "longitude": 81.8212
},
{
  "_id": {
    "$oid": "670bd14d4c81abc99fd59128"
  },
  "city": "Pottuvil",
  "name": "NK Tyre House & Service",
  "type1": "tyre",
  "whatsapp": " https://wa.me/+94756814599",
  "local": 756814599,
  "latitude": 6.8811,
  "longitude": 81.8352
},
{
  "_id": {
    "$oid": "670bd14d4c81abc99fd59129"
  },
  "city": "Trincomalee",
  "name": "NK Tyre House & Service",
  "type1": "tyre",
  "whatsapp": " https://wa.me/+94756814599",
  "local": 756814599,
  "latitude": 8.5871,
  "longitude": 81.2152
},
{
  "_id": {
    "$oid": "670bd14d4c81abc99fd5912a"
  },
  "city": "Kinniya",
  "name": "NK Tyre House & Service",
  "type1": "tyre",
  "whatsapp": " https://wa.me/+94756814599",
  "local": 756814599,
  "latitude": 8.4431,
  "longitude": 81.1732
},
{
  "_id": {
    "$oid": "670bd14d4c81abc99fd5912b"
  },
  "city": "Kuchchaveli",
  "name": "NK Tyre House & Service",
  "type1": "tyre",
  "whatsapp": " https://wa.me/+94756814599",
  "local": 756814599,
  "latitude": 8.8221,
  "longitude": 81.0252
},
{
  "_id": {
    "$oid": "670bd14d4c81abc99fd5912c"
  },
  "city": "Seruwila",
  "name": "NK Tyre House & Service",
  "type1": "tyre",
  "whatsapp": " https://wa.me/+94756814599",
  "local": 756814599,
  "latitude": 8.3691,
  "longitude": 81.2932
},
{
  "_id": {
    "$oid": "670bd14d4c81abc99fd5912d"
  },
  "city": "Nilaveli",
  "name": "NK Tyre House & Service",
  "type1": "tyre",
  "whatsapp": " https://wa.me/+94756814599",
  "local": 756814599,
  "latitude": 8.7231,
  "longitude": 81.1672
},
{
  "_id": {
    "$oid": "670bd14d4c81abc99fd5912e"
  },
  "city": "Muttur",
  "name": "NK Tyre House & Service",
  "type1": "tyre",
  "whatsapp": " https://wa.me/+94756814599",
  "local": 756814599,
  "latitude": 8.4451,
  "longitude": 81.2782
},
{
  "_id": {
    "$oid": "670bd14d4c81abc99fd5912f"
  },
  "city": "Verugal",
  "name": "NK Tyre House & Service",
  "type1": "tyre",
  "whatsapp": " https://wa.me/+94756814599",
  "local": 756814599,
  "latitude": 8.1971,
  "longitude": 81.3462
},
{
  "_id": {
    "$oid": "670bd14d4c81abc99fd59130"
  },
  "city": "Kantalai",
  "name": "NK Tyre House & Service",
  "type1": "tyre",
  "whatsapp": " https://wa.me/+94756814599",
  "local": 756814599,
  "latitude": 8.3611,
  "longitude": 81.0032
},
{
  "_id": {
    "$oid": "670bd14d4c81abc99fd59131"
  },
  "city": "Hambantota",
  "name": "NK Tyre House & Service",
  "type1": "tyre",
  "whatsapp": " https://wa.me/+94756814599",
  "local": 756814599,
  "latitude": 6.1241,
  "longitude": 81.1182
},
{
  "_id": {
    "$oid": "670bd14d4c81abc99fd59132"
  },
  "city": "Tangalle",
  "name": "NK Tyre House & Service",
  "type1": "tyre",
  "whatsapp": " https://wa.me/+94756814599",
  "local": 756814599,
  "latitude": 6.0251,
  "longitude": 80.7982
},
{
  "_id": {
    "$oid": "670bd14d4c81abc99fd59133"
  },
  "city": "Matara",
  "name": "NK Tyre House & Service",
  "type1": "tyre",
  "whatsapp": " https://wa.me/+94756814599",
  "local": 756814599,
  "latitude": 5.9541,
  "longitude": 80.5542
},
{
  "_id": {
    "$oid": "670bd14d4c81abc99fd59134"
  },
  "city": "Ambalangoda",
  "name": "NK Tyre House & Service",
  "type1": "tyre",
  "whatsapp": " https://wa.me/+94756814599",
  "local": 756814599,
  "latitude": 6.2411,
  "longitude": 80.0532
},
{
  "_id": {
    "$oid": "670bd14d4c81abc99fd59135"
  },
  "city": "Tangalle",
  "name": "NK Tyre House & Service",
  "type1": "tyre",
  "whatsapp": " https://wa.me/+94756814599",
  "local": 756814599,
  "latitude": 6.0251,
  "longitude": 80.7982
},
{
  "_id": {
    "$oid": "670bd14d4c81abc99fd59136"
  },
  "city": "Weligama",
  "name": "NK Tyre House & Service",
  "type1": "tyre",
  "whatsapp": " https://wa.me/+94756814599",
  "local": 756814599,
  "latitude": 5.9731,
  "longitude": 80.4292
},
{
  "_id": {
    "$oid": "670bd14d4c81abc99fd59137"
  },
  "city": "Mirissa",
  "name": "NK Tyre House & Service",
  "type1": "tyre",
  "whatsapp": " https://wa.me/+94756814599",
  "local": 756814599,
  "latitude": 5.9481,
  "longitude": 80.4602
},
{
  "_id": {
    "$oid": "670bd14d4c81abc99fd59138"
  },
  "city": "Devinuwara",
  "name": "NK Tyre House & Service",
  "type1": "tyre",
  "whatsapp": " https://wa.me/+94756814599",
  "local": 756814599,
  "latitude": 5.9341,
  "longitude": 80.5912
},
{
  "_id": {
    "$oid": "670bd14d4c81abc99fd59139"
  },
  "city": "Dikwella",
  "name": "NK Tyre House & Service",
  "type1": "tyre",
  "whatsapp": " https://wa.me/+94756814599",
  "local": 756814599,
  "latitude": 5.9661,
  "longitude": 80.6922
},
{
  "_id": {
    "$oid": "670bd14d4c81abc99fd5913a"
  },
  "city": "Hakmana",
  "name": "NK Tyre House & Service",
  "type1": "tyre",
  "whatsapp": " https://wa.me/+94756814599",
  "local": 756814599,
  "latitude": 6.0431,
  "longitude": 80.6192
},
{
  "_id": {
    "$oid": "670bd14d4c81abc99fd5913b"
  },
  "city": "Matara",
  "name": "NK Tyre House & Service",
  "type1": "tyre",
  "whatsapp": " https://wa.me/+94756814599",
  "local": 756814599,
  "latitude": 5.9541,
  "longitude": 80.5542
},
{
  "_id": {
    "$oid": "670bd14d4c81abc99fd5913c"
  },
  "city": "Kalutara",
  "name": "NK Tyre House & Service",
  "type1": "tyre",
  "whatsapp": " https://wa.me/+94756814599",
  "local": 756814599,
  "latitude": 6.5831,
  "longitude": 79.9592
},
{
  "_id": {
    "$oid": "670bd14d4c81abc99fd5913d"
  },
  "city": "Beruwala",
  "name": "NK Tyre House & Service",
  "type1": "tyre",
  "whatsapp": " https://wa.me/+94756814599",
  "local": 756814599,
  "latitude": 6.4781,
  "longitude": 79.9822
},
{
  "_id": {
    "$oid": "670bd14d4c81abc99fd5913e"
  },
  "city": "Panadura",
  "name": "NK Tyre House & Service",
  "type1": "tyre",
  "whatsapp": " https://wa.me/+94756814599",
  "local": 756814599,
  "latitude": 6.7131,
  "longitude": 79.9022
},
{
  "_id": {
    "$oid": "670bd14d4c81abc99fd5913f"
  },
  "city": "Wadduwa",
  "name": "NK Tyre House & Service",
  "type1": "tyre",
  "whatsapp": " https://wa.me/+94756814599",
  "local": 756814599,
  "latitude": 6.6361,
  "longitude": 79.9382
},
{
  "_id": {
    "$oid": "670bd14d4c81abc99fd59140"
  },
  "city": "Horana",
  "name": "NK Tyre House & Service",
  "type1": "tyre",
  "whatsapp": " https://wa.me/+94756814599",
  "local": 756814599,
  "latitude": 6.7151,
  "longitude": 80.0592
},
{
  "_id": {
    "$oid": "670bd14d4c81abc99fd59141"
  },
  "city": "Ingiriya",
  "name": "NK Tyre House & Service",
  "type1": "tyre",
  "whatsapp": " https://wa.me/+94756814599",
  "local": 756814599,
  "latitude": 6.7621,
  "longitude": 80.1792
},
{
  "_id": {
    "$oid": "670bd14d4c81abc99fd59142"
  },
  "city": "Mathugama",
  "name": "NK Tyre House & Service",
  "type1": "tyre",
  "whatsapp": " https://wa.me/+94756814599",
  "local": 756814599,
  "latitude": 6.5221,
  "longitude": 80.1092
},
{
  "_id": {
    "$oid": "670bd14d4c81abc99fd59143"
  },
  "city": "Bandaragama",
  "name": "NK Tyre House & Service",
  "type1": "tyre",
  "whatsapp": " https://wa.me/+94756814599",
  "local": 756814599,
  "latitude": 6.6691,
  "longitude": 80.0072
},
{
  "_id": {
    "$oid": "670bd14d4c81abc99fd59144"
  },
  "city": "Tissamaharama",
  "name": "NK Tyre House & Service",
  "type1": "tyre",
  "whatsapp": " https://wa.me/+94756814599",
  "local": 756814599,
  "latitude": 6.2821,
  "longitude": 81.2872
},
{
  "_id": {
    "$oid": "670bd14d4c81abc99fd59145"
  },
  "city": "Kataragama",
  "name": "NK Tyre House & Service",
  "type1": "tyre",
  "whatsapp": " https://wa.me/+94756814599",
  "local": 756814599,
  "latitude": 6.4191,
  "longitude": 81.3352
},
{
  "_id": {
    "$oid": "670bd14d4c81abc99fd59146"
  },
  "city": "Beliatta",
  "name": "NK Tyre House & Service",
  "type1": "tyre",
  "whatsapp": " https://wa.me/+94756814599",
  "local": 756814599,
  "latitude": 6.0491,
  "longitude": 80.7292
},
{
  "_id": {
    "$oid": "670bd14d4c81abc99fd59147"
  },
  "city": "Weeraketiya",
  "name": "NK Tyre House & Service",
  "type1": "tyre",
  "whatsapp": " https://wa.me/+94756814599",
  "local": 756814599,
  "latitude": 6.1281,
  "longitude": 80.7642
},
{
  "_id": {
    "$oid": "670bd14d4c81abc99fd59148"
  },
  "city": "Ranna",
  "name": "NK Tyre House & Service",
  "type1": "tyre",
  "whatsapp": " https://wa.me/+94756814599",
  "local": 756814599,
  "latitude": 6.0781,
  "longitude": 80.9022
},
{
  "_id": {
    "$oid": "670bd14d4c81abc99fd59149"
  },
  "city": "Kurunegala",
  "name": "NK Tyre House & Service",
  "type1": "tyre",
  "whatsapp": " https://wa.me/+94756814599",
  "local": 756814599,
  "latitude": 7.4861,
  "longitude": 80.3642
},
{
  "_id": {
    "$oid": "670bd14d4c81abc99fd5914a"
  },
  "city": "Maho",
  "name": "NK Tyre House & Service",
  "type1": "tyre",
  "whatsapp": " https://wa.me/+94756814599",
  "local": 756814599,
  "latitude": 7.7711,
  "longitude": 80.3032
},
{
  "_id": {
    "$oid": "670bd14d4c81abc99fd5914b"
  },
  "city": "Alawwa",
  "name": "NK Tyre House & Service",
  "type1": "tyre",
  "whatsapp": " https://wa.me/+94756814599",
  "local": 756814599,
  "latitude": 7.2811,
  "longitude": 80.1992
},
{
  "_id": {
    "$oid": "670bd14d4c81abc99fd5914c"
  },
  "city": "Kuliyapitiya",
  "name": "NK Tyre House & Service",
  "type1": "tyre",
  "whatsapp": " https://wa.me/+94756814599",
  "local": 756814599,
  "latitude": 7.4671,
  "longitude": 80.0432
},
{
  "_id": {
    "$oid": "670bd14d4c81abc99fd5914d"
  },
  "city": "Bingiriya",
  "name": "NK Tyre House & Service",
  "type1": "tyre",
  "whatsapp": " https://wa.me/+94756814599",
  "local": 756814599,
  "latitude": 7.4671,
  "longitude": 79.9592
},
{
  "_id": {
    "$oid": "670bd14d4c81abc99fd5914e"
  },
  "city": "Puttalam",
  "name": "NK Tyre House & Service",
  "type1": "tyre",
  "whatsapp": " https://wa.me/+94756814599",
  "local": 756814599,
  "latitude": 8.0341,
  "longitude": 79.8392
},
{
  "_id": {
    "$oid": "670bd14d4c81abc99fd5914f"
  },
  "city": "Dambadeniya",
  "name": "NK Tyre House & Service",
  "type1": "tyre",
  "whatsapp": " https://wa.me/+94756814599",
  "local": 756814599,
  "latitude": 7.3711,
  "longitude": 80.2292
},
{
  "_id": {
    "$oid": "670bd14d4c81abc99fd59150"
  },
  "city": "Wariyapola",
  "name": "NK Tyre House & Service",
  "type1": "tyre",
  "whatsapp": " https://wa.me/+94756814599",
  "local": 756814599,
  "latitude": 7.5801,
  "longitude": 80.3322
},
{
  "_id": {
    "$oid": "670bd14d4c81abc99fd59151"
  },
  "city": "Puttalam",
  "name": "NK Tyre House & Service",
  "type1": "tyre",
  "whatsapp": " https://wa.me/+94756814599",
  "local": 756814599,
  "latitude": 8.0341,
  "longitude": 79.8392
},
{
  "_id": {
    "$oid": "670bd14d4c81abc99fd59152"
  },
  "city": "Chilaw",
  "name": "NK Tyre House & Service",
  "type1": "tyre",
  "whatsapp": " https://wa.me/+94756814599",
  "local": 756814599,
  "latitude": 7.5751,
  "longitude": 79.7952
},
{
  "_id": {
    "$oid": "670bd14d4c81abc99fd59153"
  },
  "city": "Anamaduwa",
  "name": "NK Tyre House & Service",
  "type1": "tyre",
  "whatsapp": " https://wa.me/+94756814599",
  "local": 756814599,
  "latitude": 7.7641,
  "longitude": 79.9712
},
{
  "_id": {
    "$oid": "670bd14d4c81abc99fd59154"
  },
  "city": "Mundel",
  "name": "NK Tyre House & Service",
  "type1": "tyre",
  "whatsapp": " https://wa.me/+94756814599",
  "local": 756814599,
  "latitude": 7.7971,
  "longitude": 79.8162
},
{
  "_id": {
    "$oid": "670bd14d4c81abc99fd59155"
  },
  "city": "Palavi",
  "name": "NK Tyre House & Service",
  "type1": "tyre",
  "whatsapp": " https://wa.me/+94756814599",
  "local": 756814599,
  "latitude": 8.0081,
  "longitude": 79.8302
},
{
  "_id": {
    "$oid": "670bd14d4c81abc99fd59156"
  },
  "city": "Marawila",
  "name": "NK Tyre House & Service",
  "type1": "tyre",
  "whatsapp": " https://wa.me/+94756814599",
  "local": 756814599,
  "latitude": 7.4291,
  "longitude": 79.8362
},
{
  "_id": {
    "$oid": "670bd14d4c81abc99fd59157"
  },
  "city": "Anuradhapura",
  "name": "NK Tyre House & Service",
  "type1": "tyre",
  "whatsapp": " https://wa.me/+94756814599",
  "local": 756814599,
  "latitude": 8.3111,
  "longitude": 80.4032
},
{
  "_id": {
    "$oid": "670bd14d4c81abc99fd59158"
  },
  "city": "Mihintale",
  "name": "NK Tyre House & Service",
  "type1": "tyre",
  "whatsapp": " https://wa.me/+94756814599",
  "local": 756814599,
  "latitude": 8.3521,
  "longitude": 80.5042
},
{
  "_id": {
    "$oid": "670bd14d4c81abc99fd59159"
  },
  "city": "Medawachchiya",
  "name": "NK Tyre House & Service",
  "type1": "tyre",
  "whatsapp": " https://wa.me/+94756814599",
  "local": 756814599,
  "latitude": 8.6261,
  "longitude": 80.5062
},
{
  "_id": {
    "$oid": "670bd14d4c81abc99fd5915a"
  },
  "city": "Palugaswewa",
  "name": "NK Tyre House & Service",
  "type1": "tyre",
  "whatsapp": " https://wa.me/+94756814599",
  "local": 756814599,
  "latitude": 8.1041,
  "longitude": 80.6902
},
{
  "_id": {
    "$oid": "670bd14d4c81abc99fd5915b"
  },
  "city": "Galnewa",
  "name": "NK Tyre House & Service",
  "type1": "tyre",
  "whatsapp": " https://wa.me/+94756814599",
  "local": 756814599,
  "latitude": 8.1091,
  "longitude": 80.4542
},
{
  "_id": {
    "$oid": "670bd14d4c81abc99fd5915c"
  },
  "city": "Habarana",
  "name": "NK Tyre House & Service",
  "type1": "tyre",
  "whatsapp": " https://wa.me/+94756814599",
  "local": 756814599,
  "latitude": 8.0411,
  "longitude": 80.7432
},
{
  "_id": {
    "$oid": "670bd14d4c81abc99fd5915d"
  },
  "city": "Polonnaruwa",
  "name": "NK Tyre House & Service",
  "type1": "tyre",
  "whatsapp": " https://wa.me/+94756814599",
  "local": 756814599,
  "latitude": 7.9391,
  "longitude": 81.0032
},
{
  "_id": {
    "$oid": "670bd14d4c81abc99fd5915e"
  },
  "city": "Hingurakgoda",
  "name": "NK Tyre House & Service",
  "type1": "tyre",
  "whatsapp": " https://wa.me/+94756814599",
  "local": 756814599,
  "latitude": 8.0411,
  "longitude": 80.9752
},
{
  "_id": {
    "$oid": "670bd14d4c81abc99fd5915f"
  },
  "city": "Dimbulagala",
  "name": "NK Tyre House & Service",
  "type1": "tyre",
  "whatsapp": " https://wa.me/+94756814599",
  "local": 756814599,
  "latitude": 7.8541,
  "longitude": 81.1502
},
{
  "_id": {
    "$oid": "670bd14d4c81abc99fd59160"
  },
  "city": "Lankapura",
  "name": "NK Tyre House & Service",
  "type1": "tyre",
  "whatsapp": " https://wa.me/+94756814599",
  "local": 756814599,
  "latitude": 8.1021,
  "longitude": 80.9782
},
{
  "_id": {
    "$oid": "670bd14d4c81abc99fd59161"
  },
  "city": "Giritale",
  "name": "NK Tyre House & Service",
  "type1": "tyre",
  "whatsapp": " https://wa.me/+94756814599",
  "local": 756814599,
  "latitude": 8.0621,
  "longitude": 80.9622
},
{
  "_id": {
    "$oid": "670bd14d4c81abc99fd59162"
  },
  "city": "Welikanda",
  "name": "NK Tyre House & Service",
  "type1": "tyre",
  "whatsapp": " https://wa.me/+94756814599",
  "local": 756814599,
  "latitude": 7.8571,
  "longitude": 81.1722
},
{
  "_id": {
    "$oid": "670bd14d4c81abc99fd59163"
  },
  "city": "Kaduruwela",
  "name": "NK Tyre House & Service",
  "type1": "tyre",
  "whatsapp": " https://wa.me/+94756814599",
  "local": 756814599,
  "latitude": 7.9371,
  "longitude": 81.0102
},
{
  "_id": {
    "$oid": "670bd14d4c81abc99fd59164"
  },
  "city": "Wellawatte",
  "name": "Niranga Tyre house",
  "type1": "tyre",
  "whatsapp": " https://wa.me/+94756814599",
  "local": 756814599,
  "latitude": 6.8833,
  "longitude": 79.9745
},
{
  "_id": {
    "$oid": "670bd14d4c81abc99fd59165"
  },
  "city": "Kollupitiya",
  "name": "Niranga Tyre house",
  "type1": "tyre",
  "whatsapp": " https://wa.me/+94756814599",
  "local": 756814599,
  "latitude": 6.9273,
  "longitude": 79.9585
},
{
  "_id": {
    "$oid": "670bd14d4c81abc99fd59166"
  },
  "city": "Fort",
  "name": "Niranga Tyre house",
  "type1": "tyre",
  "whatsapp": " https://wa.me/+94756814599",
  "local": 756814599,
  "latitude": 6.9273,
  "longitude": 79.9555
},
{
  "_id": {
    "$oid": "670bd14d4c81abc99fd59167"
  },
  "city": "Pettah",
  "name": "Niranga Tyre house",
  "type1": "tyre",
  "whatsapp": " https://wa.me/+94756814599",
  "local": 756814599,
  "latitude": 6.9723,
  "longitude": 79.9585
},
{
  "_id": {
    "$oid": "670bd14d4c81abc99fd59168"
  },
  "city": "Dehiwala",
  "name": "Niranga Tyre house",
  "type1": "tyre",
  "whatsapp": " https://wa.me/+94756814599",
  "local": 756814599,
  "latitude": 6.8513,
  "longitude": 79.9775
},
{
  "_id": {
    "$oid": "670bd14d4c81abc99fd59169"
  },
  "city": "Mount Lavinia",
  "name": "Niranga Tyre house",
  "type1": "tyre",
  "whatsapp": " https://wa.me/+94756814599",
  "local": 756814599,
  "latitude": 6.8223,
  "longitude": 79.9735
},
{
  "_id": {
    "$oid": "670bd14d4c81abc99fd5916a"
  },
  "city": "Kalubowila",
  "name": "Niranga Tyre house",
  "type1": "tyre",
  "whatsapp": " https://wa.me/+94756814599",
  "local": 756814599,
  "latitude": 6.8553,
  "longitude": 79.9725
},
{
  "_id": {
    "$oid": "670bd14d4c81abc99fd5916b"
  },
  "city": "Kochchikade",
  "name": "Niranga Tyre house",
  "type1": "tyre",
  "whatsapp": " https://wa.me/+94756814599",
  "local": 756814599,
  "latitude": 7.0753,
  "longitude": 79.9635
},
{
  "_id": {
    "$oid": "670bd14d4c81abc99fd5916c"
  },
  "city": "Katunayake",
  "name": "Niranga Tyre house",
  "type1": "tyre",
  "whatsapp": " https://wa.me/+94756814599",
  "local": 756814599,
  "latitude": 7.1803,
  "longitude": 79.9675
},
{
  "_id": {
    "$oid": "670bd14d4c81abc99fd5916d"
  },
  "city": "Udugampola",
  "name": "Niranga Tyre house",
  "type1": "tyre",
  "whatsapp": " https://wa.me/+94756814599",
  "local": 756814599,
  "latitude": 7.1873,
  "longitude": 80.0025
},
{
  "_id": {
    "$oid": "670bd14d4c81abc99fd5916e"
  },
  "city": "Peliyagoda",
  "name": "Niranga Tyre house",
  "type1": "tyre",
  "whatsapp": " https://wa.me/+94756814599",
  "local": 756814599,
  "latitude": 6.9733,
  "longitude": 79.9575
},
{
  "_id": {
    "$oid": "670bd14d4c81abc99fd5916f"
  },
  "city": "Kiribathgoda",
  "name": "Niranga Tyre house",
  "type1": "tyre",
  "whatsapp": " https://wa.me/+94756814599",
  "local": 756814599,
  "latitude": 6.9733,
  "longitude": 79.9775
},
{
  "_id": {
    "$oid": "670bd14d4c81abc99fd59170"
  },
  "city": "Kadawatha",
  "name": "Niranga Tyre house",
  "type1": "tyre",
  "whatsapp": " https://wa.me/+94756814599",
  "local": 756814599,
  "latitude": 6.9523,
  "longitude": 80.0605
},
{
  "_id": {
    "$oid": "670bd14d4c81abc99fd59171"
  },
  "city": "Panadura",
  "name": "Niranga Tyre house",
  "type1": "tyre",
  "whatsapp": " https://wa.me/+94756814599",
  "local": 756814599,
  "latitude": 6.7423,
  "longitude": 79.9875
},
{
  "_id": {
    "$oid": "670bd14d4c81abc99fd59172"
  },
  "city": "Katubedda",
  "name": "Niranga Tyre house",
  "type1": "tyre",
  "whatsapp": " https://wa.me/+94756814599",
  "local": 756814599,
  "latitude": 6.7773,
  "longitude": 79.9935
},
{
  "_id": {
    "$oid": "670bd14d4c81abc99fd59173"
  },
  "city": "Rawatawatta",
  "name": "Niranga Tyre house",
  "type1": "tyre",
  "whatsapp": " https://wa.me/+94756814599",
  "local": 756814599,
  "latitude": 6.7743,
  "longitude": 79.9955
},
{
  "_id": {
    "$oid": "670bd14d4c81abc99fd59174"
  },
  "city": "Talawathugoda",
  "name": "Niranga Tyre house",
  "type1": "tyre",
  "whatsapp": " https://wa.me/+94756814599",
  "local": 756814599,
  "latitude": 6.9283,
  "longitude": 80.0865
},
{
  "_id": {
    "$oid": "670bd14d4c81abc99fd59175"
  },
  "city": "Malabe",
  "name": "Niranga Tyre house",
  "type1": "tyre",
  "whatsapp": " https://wa.me/+94756814599",
  "local": 756814599,
  "latitude": 6.9323,
  "longitude": 80.0545
},
{
  "_id": {
    "$oid": "670bd14d4c81abc99fd59176"
  },
  "city": "Pannipitiya",
  "name": "Niranga Tyre house",
  "type1": "tyre",
  "whatsapp": " https://wa.me/+94756814599",
  "local": 756814599,
  "latitude": 6.9353,
  "longitude": 80.0965
},
{
  "_id": {
    "$oid": "670bd14d4c81abc99fd59177"
  },
  "city": "Hendala",
  "name": "Niranga Tyre house",
  "type1": "tyre",
  "whatsapp": " https://wa.me/+94756814599",
  "local": 756814599,
  "latitude": 6.9803,
  "longitude": 79.9635
},
{
  "_id": {
    "$oid": "670bd14d4c81abc99fd59178"
  },
  "city": "Rajagiriya",
  "name": "Niranga Tyre house",
  "type1": "tyre",
  "whatsapp": " https://wa.me/+94756814599",
  "local": 756814599,
  "latitude": 6.9293,
  "longitude": 79.9725
},
{
  "_id": {
    "$oid": "670bd14d4c81abc99fd59179"
  },
  "city": "Wijerama",
  "name": "Niranga Tyre house",
  "type1": "tyre",
  "whatsapp": " https://wa.me/+94756814599",
  "local": 756814599,
  "latitude": 6.9243,
  "longitude": 79.9785
},
{
  "_id": {
    "$oid": "670bd14d4c81abc99fd5917a"
  },
  "city": "Battaramulla",
  "name": "Niranga Tyre house",
  "type1": "tyre",
  "whatsapp": " https://wa.me/+94756814599",
  "local": 756814599,
  "latitude": 6.9263,
  "longitude": 80.0455
},
{
  "_id": {
    "$oid": "670bd14d4c81abc99fd5917b"
  },
  "city": "Kaluwella",
  "name": "Niranga Tyre house",
  "type1": "tyre",
  "whatsapp": " https://wa.me/+94756814599",
  "local": 756814599,
  "latitude": 6.0143,
  "longitude": 80.2205
},
{
  "_id": {
    "$oid": "670bd14d4c81abc99fd5917c"
  },
  "city": "Boossa",
  "name": "Niranga Tyre house",
  "type1": "tyre",
  "whatsapp": " https://wa.me/+94756814599",
  "local": 756814599,
  "latitude": 6.0123,
  "longitude": 80.2155
},
{
  "_id": {
    "$oid": "670bd14d4c81abc99fd5917d"
  },
  "city": "Udugama",
  "name": "Niranga Tyre house",
  "type1": "tyre",
  "whatsapp": " https://wa.me/+94756814599",
  "local": 756814599,
  "latitude": 6.0513,
  "longitude": 80.2745
},
{
  "_id": {
    "$oid": "670bd14d4c81abc99fd5917e"
  },
  "city": "Ariyapala",
  "name": "Niranga Tyre house",
  "type1": "tyre",
  "whatsapp": " https://wa.me/+94756814599",
  "local": 756814599,
  "latitude": 6.1263,
  "longitude": 80.3815
},
{
  "_id": {
    "$oid": "670bd14d4c81abc99fd5917f"
  },
  "city": "Thudella",
  "name": "Niranga Tyre house",
  "type1": "tyre",
  "whatsapp": " https://wa.me/+94756814599",
  "local": 756814599,
  "latitude": 6.0653,
  "longitude": 80.2115
},
{
  "_id": {
    "$oid": "670bd14d4c81abc99fd59180"
  },
  "city": "Galle Road",
  "name": "Niranga Tyre house",
  "type1": "tyre",
  "whatsapp": " https://wa.me/+94756814599",
  "local": 756814599,
  "latitude": 6.9283,
  "longitude": 79.9575
},
{
  "_id": {
    "$oid": "670bd14d4c81abc99fd59181"
  },
  "city": "Narigama",
  "name": "Niranga Tyre house",
  "type1": "tyre",
  "whatsapp": " https://wa.me/+94756814599",
  "local": 756814599,
  "latitude": 6.1293,
  "longitude": 80.2185
},
{
  "_id": {
    "$oid": "670bd14d4c81abc99fd59182"
  },
  "city": "Telwatta",
  "name": "Niranga Tyre house",
  "type1": "tyre",
  "whatsapp": " https://wa.me/+94756814599",
  "local": 756814599,
  "latitude": 6.1303,
  "longitude": 80.2205
},
{
  "_id": {
    "$oid": "670bd14d4c81abc99fd59183"
  },
  "city": "Dodanduwa",
  "name": "Niranga Tyre house",
  "type1": "tyre",
  "whatsapp": " https://wa.me/+94756814599",
  "local": 756814599,
  "latitude": 6.1183,
  "longitude": 80.2295
},
{
  "_id": {
    "$oid": "670bd14d4c81abc99fd59184"
  },
  "city": "Talpe",
  "name": "Niranga Tyre house",
  "type1": "tyre",
  "whatsapp": "https://wa.me/+94756814599",
  "local": 756814599,
  "latitude": 6.0513,
  "longitude": 80.2305
},
{
  "_id": {
    "$oid": "670bd14d4c81abc99fd59185"
  },
  "city": "Yaddehimulla",
  "name": "Niranga Tyre house",
  "type1": "tyre",
  "whatsapp": " https://wa.me/+94756814599",
  "local": 756814599,
  "latitude": 6.1333,
  "longitude": 80.2195
},
{
  "_id": {
    "$oid": "670bd14d4c81abc99fd59186"
  },
  "city": "Pitiwella",
  "name": "Niranga Tyre house",
  "type1": "tyre",
  "whatsapp": " https://wa.me/+94756814599",
  "local": 756814599,
  "latitude": 6.0483,
  "longitude": 80.2325
},
{
  "_id": {
    "$oid": "670bd14d4c81abc99fd59187"
  },
  "city": "Katudampala",
  "name": "Niranga Tyre house",
  "type1": "tyre",
  "whatsapp": " https://wa.me/+94756814599",
  "local": 756814599,
  "latitude": 6.0773,
  "longitude": 80.3325
},
{
  "_id": {
    "$oid": "670bd14d4c81abc99fd59188"
  },
  "city": "Moragalla",
  "name": "Niranga Tyre house",
  "type1": "tyre",
  "whatsapp": " https://wa.me/+94756814599",
  "local": 756814599,
  "latitude": 6.1243,
  "longitude": 80.2205
},
{
  "_id": {
    "$oid": "670bd14d4c81abc99fd59189"
  },
  "city": "Biyagama",
  "name": "Niranga Tyre house",
  "type1": "tyre",
  "whatsapp": " https://wa.me/+94756814599",
  "local": 756814599,
  "latitude": 6.9863,
  "longitude": 80.0655
},
{
  "_id": {
    "$oid": "670bd14d4c81abc99fd5918a"
  },
  "city": "Ginthota",
  "name": "Niranga Tyre house",
  "type1": "tyre",
  "whatsapp": " https://wa.me/+94756814599",
  "local": 756814599,
  "latitude": 6.0283,
  "longitude": 80.2165
},
{
  "_id": {
    "$oid": "670bd14d4c81abc99fd5918b"
  },
  "city": "Kumburugamuwa",
  "name": "Niranga Tyre house",
  "type1": "tyre",
  "whatsapp": " https://wa.me/+94756814599",
  "local": 756814599,
  "latitude": 6.0323,
  "longitude": 80.2295
},
{
  "_id": {
    "$oid": "670bd14d4c81abc99fd5918c"
  },
  "city": "Habarakada",
  "name": "Niranga Tyre house",
  "type1": "tyre",
  "whatsapp": " https://wa.me/+94756814599",
  "local": 756814599,
  "latitude": 6.8963,
  "longitude": 80.0125
},
{
  "_id": {
    "$oid": "670bd14d4c81abc99fd5918d"
  },
  "city": "Kamburugamuwa",
  "name": "Niranga Tyre house",
  "type1": "tyre",
  "whatsapp": " https://wa.me/+94756814599",
  "local": 756814599,
  "latitude": 6.0213,
  "longitude": 80.2295
},
{
  "_id": {
    "$oid": "670bd14d4c81abc99fd5918e"
  },
  "city": "Karandeniya",
  "name": "Niranga Tyre house",
  "type1": "tyre",
  "whatsapp": " https://wa.me/+94756814599",
  "local": 756814599,
  "latitude": 6.1863,
  "longitude": 80.2235
},
{
  "_id": {
    "$oid": "670bd14d4c81abc99fd5918f"
  },
  "city": "Wewala",
  "name": "Niranga Tyre house",
  "type1": "tyre",
  "whatsapp": " https://wa.me/+94756814599",
  "local": 756814599,
  "latitude": 6.1333,
  "longitude": 80.2065
},
{
  "_id": {
    "$oid": "670bd14d4c81abc99fd59190"
  },
  "city": "Kammala",
  "name": "Niranga Tyre house",
  "type1": "tyre",
  "whatsapp": " https://wa.me/+94756814599",
  "local": 756814599,
  "latitude": 6.0163,
  "longitude": 80.3835
},
{
  "_id": {
    "$oid": "670bd14d4c81abc99fd59191"
  },
  "city": "Yakkala",
  "name": "Niranga Tyre house",
  "type1": "tyre",
  "whatsapp": " https://wa.me/+94756814599",
  "local": 756814599,
  "latitude": 6.9413,
  "longitude": 80.0545
},
{
  "_id": {
    "$oid": "670bd14d4c81abc99fd59192"
  },
  "city": "Ekala",
  "name": "Niranga Tyre house",
  "type1": "tyre",
  "whatsapp": " https://wa.me/+94756814599",
  "local": 756814599,
  "latitude": 6.9833,
  "longitude": 80.1335
},
{
  "_id": {
    "$oid": "670bd14d4c81abc99fd59193"
  },
  "city": "Miriswatta",
  "name": "Niranga Tyre house",
  "type1": "tyre",
  "whatsapp": " https://wa.me/+94756814599",
  "local": 756814599,
  "latitude": 6.9333,
  "longitude": 80.0665
},
{
  "_id": {
    "$oid": "670bd14d4c81abc99fd59194"
  },
  "city": "Ja-Ela",
  "name": "Niranga Tyre house",
  "type1": "tyre",
  "whatsapp": " https://wa.me/+94756814599",
  "local": 756814599,
  "latitude": 6.9743,
  "longitude": 80.1555
},
{
  "_id": {
    "$oid": "670bd14d4c81abc99fd59195"
  },
  "city": "Mahara",
  "name": "Niranga Tyre house",
  "type1": "tyre",
  "whatsapp": " https://wa.me/+94756814599",
  "local": 756814599,
  "latitude": 6.9743,
  "longitude": 80.1275
},
{
  "_id": {
    "$oid": "670bd14d4c81abc99fd59196"
  },
  "city": "Divulapitiya",
  "name": "Niranga Tyre house",
  "type1": "tyre",
  "whatsapp": " https://wa.me/+94756814599",
  "local": 756814599,
  "latitude": 7.0143,
  "longitude": 80.0575
},
{
  "_id": {
    "$oid": "670bd14d4c81abc99fd59197"
  },
  "city": "Peradeniya",
  "name": "Niranga Tyre house",
  "type1": "tyre",
  "whatsapp": " https://wa.me/+94756814599",
  "local": 756814599,
  "latitude": 7.2753,
  "longitude": 80.5985
},
{
  "_id": {
    "$oid": "670bd14d4c81abc99fd59198"
  },
  "city": "Kandy University",
  "name": "Niranga Tyre house",
  "type1": "tyre",
  "whatsapp": " https://wa.me/+94756814599",
  "local": 756814599,
  "latitude": 7.2783,
  "longitude": 80.5975
},
{
  "_id": {
    "$oid": "670bd14d4c81abc99fd59199"
  },
  "city": "Hantane",
  "name": "Niranga Tyre house",
  "type1": "tyre",
  "whatsapp": " https://wa.me/+94756814599",
  "local": 756814599,
  "latitude": 7.2903,
  "longitude": 80.5945
},
{
  "_id": {
    "$oid": "670bd14d4c81abc99fd5919a"
  },
  "city": "Kandy Road",
  "name": "Niranga Tyre house",
  "type1": "tyre",
  "whatsapp": " https://wa.me/+94756814599",
  "local": 756814599,
  "latitude": 7.2833,
  "longitude": 80.5835
},
{
  "_id": {
    "$oid": "670bd14d4c81abc99fd5919b"
  },
  "city": "Kothmale",
  "name": "Niranga Tyre house",
  "type1": "tyre",
  "whatsapp": " https://wa.me/+94756814599",
  "local": 756814599,
  "latitude": 7.1823,
  "longitude": 80.5055
},
{
  "_id": {
    "$oid": "670bd14d4c81abc99fd5919c"
  },
  "city": "Hatton",
  "name": "Niranga Tyre house",
  "type1": "tyre",
  "whatsapp": " https://wa.me/+94756814599",
  "local": 756814599,
  "latitude": 6.9673,
  "longitude": 80.6165
},
{
  "_id": {
    "$oid": "670bd14d4c81abc99fd5919d"
  },
  "city": "Galigamuwa",
  "name": "Niranga Tyre house",
  "type1": "tyre",
  "whatsapp": " https://wa.me/+94756814599",
  "local": 756814599,
  "latitude": 7.0463,
  "longitude": 80.4575
},
{
  "_id": {
    "$oid": "670bd14d4c81abc99fd5919e"
  },
  "city": "Rambukkana",
  "name": "Niranga Tyre house",
  "type1": "tyre",
  "whatsapp": " https://wa.me/+94756814599",
  "local": 756814599,
  "latitude": 7.0513,
  "longitude": 80.4065
},
{
  "_id": {
    "$oid": "670bd14d4c81abc99fd5919f"
  },
  "city": "Warakapola",
  "name": "Niranga Tyre house",
  "type1": "tyre",
  "whatsapp": " https://wa.me/+94756814599",
  "local": 756814599,
  "latitude": 7.0513,
  "longitude": 80.4075
},
{
  "_id": {
    "$oid": "670bd14d4c81abc99fd591a0"
  },
  "city": "Galewela",
  "name": "Niranga Tyre house",
  "type1": "tyre",
  "whatsapp": " https://wa.me/+94756814599",
  "local": 756814599,
  "latitude": 7.1773,
  "longitude": 80.5025
},
{
  "_id": {
    "$oid": "670bd14d4c81abc99fd591a1"
  },
  "city": "Matale",
  "name": "Niranga Tyre house",
  "type1": "tyre",
  "whatsapp": " https://wa.me/+94756814599",
  "local": 756814599,
  "latitude": 7.4893,
  "longitude": 80.6065
},
{
  "_id": {
    "$oid": "670bd14d4c81abc99fd591a2"
  },
  "city": "Nalanda",
  "name": "Niranga Tyre house",
  "type1": "tyre",
  "whatsapp": " https://wa.me/+94756814599",
  "local": 756814599,
  "latitude": 7.5083,
  "longitude": 80.6175
},
{
  "_id": {
    "$oid": "670bd14d4c81abc99fd591a3"
  },
  "city": "Sigiriya",
  "name": "Niranga Tyre house",
  "type1": "tyre",
  "whatsapp": " https://wa.me/+94756814599",
  "local": 756814599,
  "latitude": 7.9553,
  "longitude": 80.7665
},
{
  "_id": {
    "$oid": "670bd14d4c81abc99fd591a4"
  },
  "city": "Naula",
  "name": "Niranga Tyre house",
  "type1": "tyre",
  "whatsapp": " https://wa.me/+94756814599",
  "local": 756814599,
  "latitude": 7.4683,
  "longitude": 80.5435
},
{
  "_id": {
    "$oid": "670bd14d4c81abc99fd591a5"
  },
  "city": "Hettipola",
  "name": "Niranga Tyre house",
  "type1": "tyre",
  "whatsapp": " https://wa.me/+94756814599",
  "local": 756814599,
  "latitude": 7.4373,
  "longitude": 80.3815
},
{
  "_id": {
    "$oid": "670bd14d4c81abc99fd591a6"
  },
  "city": "Ukuwela",
  "name": "Niranga Tyre house",
  "type1": "tyre",
  "whatsapp": " https://wa.me/+94756814599",
  "local": 756814599,
  "latitude": 7.3903,
  "longitude": 80.3745
},
{
  "_id": {
    "$oid": "670bd14d4c81abc99fd591a7"
  },
  "city": "Laggala",
  "name": "Niranga Tyre house",
  "type1": "tyre",
  "whatsapp": " https://wa.me/+94756814599",
  "local": 756814599,
  "latitude": 7.4053,
  "longitude": 80.6045
},
{
  "_id": {
    "$oid": "670bd14d4c81abc99fd591a8"
  },
  "city": "Grand Hotel",
  "name": "Niranga Tyre house",
  "type1": "tyre",
  "whatsapp": " https://wa.me/+94756814599",
  "local": 756814599,
  "latitude": 6.9643,
  "longitude": 80.2325
},
{
  "_id": {
    "$oid": "670bd14d4c81abc99fd591a9"
  },
  "city": "Lake Gregory",
  "name": "Niranga Tyre house",
  "type1": "tyre",
  "whatsapp": " https://wa.me/+94756814599",
  "local": 756814599,
  "latitude": 6.9633,
  "longitude": 80.2315
},
{
  "_id": {
    "$oid": "670bd14d4c81abc99fd591aa"
  },
  "city": "Nuwara Eliya Town",
  "name": "Niranga Tyre house",
  "type1": "tyre",
  "whatsapp": " https://wa.me/+94756814599",
  "local": 756814599,
  "latitude": 6.9683,
  "longitude": 80.2235
},
{
  "_id": {
    "$oid": "670bd14d4c81abc99fd591ab"
  },
  "city": "Halpe",
  "name": "Niranga Tyre house",
  "type1": "tyre",
  "whatsapp": " https://wa.me/+94756814599",
  "local": 756814599,
  "latitude": 6.9103,
  "longitude": 81.0845
},
{
  "_id": {
    "$oid": "670bd14d4c81abc99fd591ac"
  },
  "city": "Passara",
  "name": "Niranga Tyre house",
  "type1": "tyre",
  "whatsapp": " https://wa.me/+94756814599",
  "local": 756814599,
  "latitude": 6.8423,
  "longitude": 81.1525
},
{
  "_id": {
    "$oid": "670bd14d4c81abc99fd591ad"
  },
  "city": "Welimada",
  "name": "Niranga Tyre house",
  "type1": "tyre",
  "whatsapp": " https://wa.me/+94756814599",
  "local": 756814599,
  "latitude": 6.8883,
  "longitude": 81.1065
},
{
  "_id": {
    "$oid": "670bd14d4c81abc99fd591ae"
  },
  "city": "Badulla",
  "name": "Niranga Tyre house",
  "type1": "tyre",
  "whatsapp": " https://wa.me/+94756814599",
  "local": 756814599,
  "latitude": 6.9783,
  "longitude": 81.0535
},
{
  "_id": {
    "$oid": "670bd14d4c81abc99fd591af"
  },
  "city": "Ohiya",
  "name": "Niranga Tyre house",
  "type1": "tyre",
  "whatsapp": " https://wa.me/+94756814599",
  "local": 756814599,
  "latitude": 6.9113,
  "longitude": 81.1515
},
{
  "_id": {
    "$oid": "670bd14d4c81abc99fd591b0"
  },
  "city": "Diyatalawa",
  "name": "Niranga Tyre house",
  "type1": "tyre",
  "whatsapp": " https://wa.me/+94756814599",
  "local": 756814599,
  "latitude": 6.9143,
  "longitude": 81.1455
},
{
  "_id": {
    "$oid": "670bd14d4c81abc99fd591b1"
  },